"name","address","city","zip","state","country","phone","email","website","openingHours","lat","lng","accuracy","error"
"ZACHARY`S","375 ELM ST","NEW HAVEN","6511","CT","USA","","","http://www.ctlottery.org/Modules/Directory/06511","","41.3119208","'-72.9333419","User provided",""
"ORCHARD WINE & LIQUOR","150 Henry St","NEW HAVEN","6511","CT","USA","","","http://www.ctlottery.org/Modules/Directory/06511","","41.320727","'-72.9359489","User provided",""
"Maple Mini Mart","18-19 Maple St","ANSONIA","6401","CT","USA","","","http://www.ctlottery.org/Modules/Directory/06401","","41.3457012","'-73.0804619","User provided",""
"MONROE STORE","172 Main St","MONROE","6468","CT","USA","","","http://www.ctlottery.org/Modules/Directory/06468","","41.3054182","'-73.2551224","User provided",""
"JP Grocery & Deli II LLC","234 Palisade Avenue","BRIDGEPORT","6610","CT","USA","","","http://www.ctlottery.org/Modules/Directory/06610","","41.196584","'-73.1654081","User provided",""
"Julias Market LLC","949 Boston Post Rd","WEST HAVEN","6516","CT","USA","","","http://www.ctlottery.org/Modules/Directory/06516","","41.285267","'-72.978","User provided",""
"Exit 6 Valero","84 North St","DANBURY","6810","CT","USA","","","http://www.ctlottery.org/Modules/Directory/06810","","41.408329","'-73.455298","User provided",""
"NEW HAVEN UNION NEWS INC","50 UNION AVE","NEW HAVEN","6519","CT","USA","","","http://www.ctlottery.org/Modules/Directory/06519","","41.2975912","'-72.9267052","User provided",""
"M & M DISCOUNT LIQUORS","80 Wolcott St","BRISTOL","6010","CT","USA","","","http://www.ctlottery.org/Modules/Directory/06010","","41.6651472","'-72.9480276","User provided",""
"Sharon Xtra Mart","17 Gay Street","SHARON","6069","CT","USA","","","http://www.ctlottery.org/Modules/Directory/06069","","41.88426","'-73.468822","User provided",""
"AASHIRWAD PETROLEUM INC","2980 Main St","STRATFORD","6614","CT","USA","","","http://www.ctlottery.org/Modules/Directory/06614","","41.2010984","'-73.1312611","User provided",""
"Super Stop & Shop #2604","931 Torringford St","TORRINGTON","6790","CT","USA","","","http://www.ctlottery.org/Modules/Directory/06790","","41.8193934","'-73.0818305","User provided",""
"C-TOWN SUPERMARKET","47 Main St","NEW BRITAIN","6051","CT","USA","","","http://www.ctlottery.org/Modules/Directory/06051","","41.6653189","'-72.780527","User provided",""
"WINSTED SUPER SAVER INC","372 MAIN ST","WINSTED","6098","CT","USA","","","http://www.ctlottery.org/Modules/Directory/06098","","41.9210237","'-73.0706757","User provided",""
"Monroe Smoke Shop","181 Main St","MONROE","6468","CT","USA","","","http://www.ctlottery.org/Modules/Directory/06468","","41.3073065","'-73.2562097","User provided",""
"Stop & Go Food Mart","294 S Main St","MIDDLETOWN","6457","CT","USA","","","http://www.ctlottery.org/Modules/Directory/06457","","41.5482466","'-72.6505956","User provided",""
"FOOD BAG #524","953 HOPE ST","STAMFORD","6907","CT","USA","","","http://www.ctlottery.org/Modules/Directory/06907","","41.091386","'-73.5180629","User provided",""
"TOWN & COUNTRY LIQUORS LLC","696 Amity Rd","BETHANY","6524","CT","USA","","","http://www.ctlottery.org/Modules/Directory/06524","","41.437299","'-72.9909519","User provided",""
"WEST STREET WINES & SPIRITS","131 WEST ST","SIMSBURY","6070","CT","USA","","","http://www.ctlottery.org/Modules/Directory/06070","","41.8699451","'-72.8163919","User provided",""
"CORNER GROCERY LLC","195 LLOYD ST","NEW HAVEN","6513","CT","USA","","","http://www.ctlottery.org/Modules/Directory/06513","","41.30715","'-72.900511","User provided",""
"7-Eleven Store #39381A","247 Main St","NORWALK","6851","CT","USA","","","http://www.ctlottery.org/Modules/Directory/06851","","41.1310316","'-73.4234764","User provided",""
"Stateline Stationery","215 Mill St","GREENWICH","6830","CT","USA","","","http://www.ctlottery.org/Modules/Directory/06830","","41.0036851","'-73.6573716","User provided",""
"Robert Mini Market","1018 Sylvan Avenue","BRIDGEPORT","6606","CT","USA","","","http://www.ctlottery.org/Modules/Directory/06606","","41.2157902","'-73.1871563","User provided",""
"North Haven Xtra Mart","641 Washington Avenue","NORTH HAVEN","6473","CT","USA","","","http://www.ctlottery.org/Modules/Directory/06473","","41.4236597","'-72.8391865","User provided",""
"Mobil #925","483 Silver Lane","EAST HARTFORD","6118","CT","USA","","","http://www.ctlottery.org/Modules/Directory/06118","","41.7625709","'-72.6233403","User provided",""
"EAGLE SPIRITS","1146 WINDHAM RD","SOUTH WINDHAM","6266","CT","USA","","","http://www.ctlottery.org/Modules/Directory/06266","","41.6624302","'-72.1601234","User provided",""
"Wine Merchants","994 N Colony Rd","WALLINGFORD","6492","CT","USA","","","http://www.ctlottery.org/Modules/Directory/06492","","41.489976","'-72.808817","User provided",""
"FBAA LLC","326 Main St","NIANTIC","6357","CT","USA","","","http://www.ctlottery.org/Modules/Directory/06357","","41.322604","'-72.195643","User provided",""
"The Wise Old Dog","610 S Quaker Ln","WEST HARTFORD","6110","CT","USA","","","http://www.ctlottery.org/Modules/Directory/06110","","41.743566","'-72.729691","User provided",""
"SAM`S FOOD STORE","275 Washington St","NORWICH","6360","CT","USA","","","http://www.ctlottery.org/Modules/Directory/06360","","41.5403996","'-72.0853407","User provided",""
"Andover Express LLC","380 Route 6","ANDOVER","6232","CT","USA","","","http://www.ctlottery.org/Modules/Directory/06232","","52.6308501","'-1.1224772","User provided",""
"Stop & Save","176 Spencer St","NAUGATUCK","6770","CT","USA","","","http://www.ctlottery.org/Modules/Directory/06770","","41.4801469","'-73.0607673","User provided",""
"LA PLACITA LATINA MEAT & DELI","2634 MAIN ST","BRIDGEPORT","6606","CT","USA","","","http://www.ctlottery.org/Modules/Directory/06606","","41.1985546","'-73.2012778","User provided",""
"CUMBERLAND FARMS #4657","47 NORWICH-NEW LONDON Tpk","QUAKER HILL","6375","CT","USA","","","http://www.ctlottery.org/Modules/Directory/06375","","41.4280616","'-72.110279","User provided",""
"STOP & SHOP #682","220 RTE 12","GROTON","6340","CT","USA","","","http://www.ctlottery.org/Modules/Directory/06340","","41.3680645","'-72.0699038","User provided",""
"Country Farms Store","83 Ward Ave","MOOSUP","6354","CT","USA","","","http://www.ctlottery.org/Modules/Directory/06354","","41.71174","'-71.884845","User provided",""
"OMAR MARKET","1509 E Main St","BRIDGEPORT","6608","CT","USA","","","http://www.ctlottery.org/Modules/Directory/06608","","41.195315","'-73.1804143","User provided",""
"CHEERS WINE & SPIRITS","772 Farmington Ave","WEST HARTFORD","6119","CT","USA","","","http://www.ctlottery.org/Modules/Directory/06119","","41.765288","'-72.725738","User provided",""
"JAY`S INTERSTATE","11 Marion Ave","PLANTSVILLE","6479","CT","USA","","","http://www.ctlottery.org/Modules/Directory/06479","","41.5879649","'-72.898666","User provided",""
"McFAIRLAWNS SPORTS TAVERN","216 FROST RD","WATERBURY","6705","CT","USA","","","http://www.ctlottery.org/Modules/Directory/06705","","41.5482056","'-73.0026186","User provided",""
"Big M Liquors LLC","71 Pratt St","MERIDEN","6450","CT","USA","","","http://www.ctlottery.org/Modules/Directory/06450","","41.5384751","'-72.7984891","User provided",""
"MIDDLEFIELD GROCERY INC.","482 Main St","MIDDLEFIELD","6455","CT","USA","","","http://www.ctlottery.org/Modules/Directory/06455","","41.5134037","'-72.7121227","User provided",""
"STOP & SHOP #613","10 PITKIN RD","VERNON","6066","CT","USA","","","http://www.ctlottery.org/Modules/Directory/06066","","41.8295291","'-72.4941874","User provided",""
"Snaxx Plus","5 John Fitch Blvd","SOUTH WINDSOR","6074","CT","USA","","","http://www.ctlottery.org/Modules/Directory/06074","","41.7992715","'-72.6186873","User provided",""
"FARMINGTON SUN INC","669 FARMINGTON AVE","WEST HARTFORD","6119","CT","USA","","","http://www.ctlottery.org/Modules/Directory/06119","","41.765282","'-72.716449","User provided",""
"Cumberland Farms #4764","343 Hartford Turnpike","VERNON","6066","CT","USA","","","http://www.ctlottery.org/Modules/Directory/06066","","41.827246","'-72.4890768","User provided",""
"Discount Tobacco Bristol LLC","123 Farmington Ave","BRISTOL","6010","CT","USA","","","http://www.ctlottery.org/Modules/Directory/06010","","41.6848227","'-72.9390129","User provided",""
"Krieyeh 2 LLC","179 Watertown Road","THOMASTON","6787","CT","USA","","","http://www.ctlottery.org/Modules/Directory/06787","","41.657628","'-73.086177","User provided",""
"FAS MART #316","856 Sullivan Avenue","SOUTH WINDSOR","6074","CT","USA","","","http://www.ctlottery.org/Modules/Directory/06074","","41.8478564","'-72.5672107","User provided",""
"Roma Cigars and Tobacco","603 Campbell Ave","WEST HAVEN","6516","CT","USA","","","http://www.ctlottery.org/Modules/Directory/06516","","41.274615","'-72.9516004","User provided",""
"STOP & SHOP #625","200 NEW HARTFORD RD","WINSTED","6098","CT","USA","","","http://www.ctlottery.org/Modules/Directory/06098","","41.9089858","'-73.0498597","User provided",""
"Discount Tobacco","1949 Silas Deane Hwy","ROCKY HILL","6067","CT","USA","","","http://www.ctlottery.org/Modules/Directory/06067","","41.673779","'-72.647469","User provided",""
"CUMBERLAND FARMS #4689","273 MITCHEL ST","GROTON","6340","CT","USA","","","http://www.ctlottery.org/Modules/Directory/06340","","41.349602","'-72.0765009","User provided",""
"Royal Cigar & Tobacco","33 Cross Rd Plaza","WEST HARTFORD","6110","CT","USA","","","http://www.ctlottery.org/Modules/Directory/06110","","41.739776","'-72.7418859","User provided",""
"Mobil","240 Middle Turnpike W","MANCHESTER","6040","CT","USA","","","http://www.ctlottery.org/Modules/Directory/06040","","41.7814357","'-72.5346086","User provided",""
"7-ELEVEN STORE #32520A","2711 BOSTON TPKE","COVENTRY","6238","CT","USA","","","http://www.ctlottery.org/Modules/Directory/06238","","41.7960459","'-72.410846","User provided",""
"TUNXIS PATCO HANDY STOP","1800 Farmington Ave","UNIONVILLE","6085","CT","USA","","","http://www.ctlottery.org/Modules/Directory/06085","","41.7568367","'-72.8831047","User provided",""
"7-ELEVEN STORE #11479G","461 New Britain Ave","NEWINGTON","6111","CT","USA","","","http://www.ctlottery.org/Modules/Directory/06111","","41.6737047","'-72.7416452","User provided",""
"Wine & Liquor","226 Main Street","EAST HAVEN","6512","CT","USA","","","http://www.ctlottery.org/Modules/Directory/06512","","41.2905368","'-72.7980929","User provided",""
"Kelly`s on Campbell","144 Campbell Ave","WEST HAVEN","6516","CT","USA","","","http://www.ctlottery.org/Modules/Directory/06516","","41.2619715","'-72.9463795","User provided",""
"BOB`S PACKAGE STORE","1426 E MAIN ST","MERIDEN","6450","CT","USA","","","http://www.ctlottery.org/Modules/Directory/06450","","41.526164","'-72.754733","User provided",""
"248 Boston Post Road LLC","248 Boston Post Road","ORANGE","6477","CT","USA","","","http://www.ctlottery.org/Modules/Directory/06477","","41.2685375","'-72.99927","User provided",""
"Roomi Food Plus","2 Schennocossett Rd","GROTON","6340","CT","USA","","","http://www.ctlottery.org/Modules/Directory/06340","","41.3371224","'-72.0751146","User provided",""
"SMOKERS DISCOUNT WORLD","29 Ella Grasso Tpke","WINDSOR LOCKS","6096","CT","USA","","","http://www.ctlottery.org/Modules/Directory/06096","","41.9170775","'-72.6734257","User provided",""
"BEST BUY FOOD MART INC","345 Columbus Blvd","NEW BRITAIN","6050","CT","USA","","","http://www.ctlottery.org/Modules/Directory/06050","","41.661904","'-72.775736","User provided",""
"D & B Market","787 Beechwood Avenue","BRIDGEPORT","6605","CT","USA","","","http://www.ctlottery.org/Modules/Directory/06605","","41.1752308","'-73.216876","User provided",""
"SHERMAN IGA INC","15 Rte 39 N","SHERMAN","6784","CT","USA","","","http://www.ctlottery.org/Modules/Directory/06784","","41.5749349","'-73.4992142","User provided",""
"Amity Mobil","1474 Whalley Ave","NEW HAVEN","6515","CT","USA","","","http://www.ctlottery.org/Modules/Directory/06515","","41.3352549","'-72.977039","User provided",""
"Alltown Cromwell","176 West Street","CROMWELL","6416","CT","USA","","","http://www.ctlottery.org/Modules/Directory/06416","","41.6036243","'-72.6760978","User provided",""
"RITE AID #10343","1350 Stanley St","NEW BRITAIN","6053","CT","USA","","","http://www.ctlottery.org/Modules/Directory/06053","","41.683903","'-72.768049","User provided",""
"Burnside Supermarket","1150 Burnside Ave","EAST HARTFORD","6108","CT","USA","","","http://www.ctlottery.org/Modules/Directory/06108","","41.7837389","'-72.5883789","User provided",""
"NEWTOWN ROAD ITALIAN DELI","60 Newtown Rd","DANBURY","6810","CT","USA","","","http://www.ctlottery.org/Modules/Directory/06810","","41.4054103","'-73.4204822","User provided",""
"Jays Wine & Liquor","427 N Main St","BRISTOL","6010","CT","USA","","","http://www.ctlottery.org/Modules/Directory/06010","","41.6799936","'-72.9472729","User provided",""
"GLORIA`S APPLEHOUSE QUICK MART","1758 E MAIN ST","TORRINGTON","6790","CT","USA","","","http://www.ctlottery.org/Modules/Directory/06790","","41.820683","'-73.081553","User provided",""
"FIVE CORNERS WINE & SPIRIT","192 Windsorville Rd","ELLINGTON","6029","CT","USA","","","http://www.ctlottery.org/Modules/Directory/06029","","41.867153","'-72.4886889","User provided",""
"Sammy Market","253 Davenport Ave","NEW HAVEN","6519","CT","USA","","","http://www.ctlottery.org/Modules/Directory/06519","","41.3010899","'-72.9422186","User provided",""
"COUNTRY FOOD MARKET INC","2215 State St","HAMDEN","6517","CT","USA","","","http://www.ctlottery.org/Modules/Directory/06517","","41.3415929","'-72.895534","User provided",""
"SUPERIOR LIQUOR","265 ELLINGTON RD","EAST HARTFORD","6108","CT","USA","","","http://www.ctlottery.org/Modules/Directory/06108","","41.7944961","'-72.6223361","User provided",""
"NEW HAVEN HESS","1159 Whalley Ave.","NEW HAVEN","6515","CT","USA","","","http://www.ctlottery.org/Modules/Directory/06515","","41.329529","'-72.968753","User provided",""
"VILLAGE MART","605 Success Ave","STRATFORD","6614","CT","USA","","","http://www.ctlottery.org/Modules/Directory/06614","","41.2009227","'-73.1563928","User provided",""
"COUNTRY STORE","960 Sullivan Ave","SOUTH WINDSOR","6074","CT","USA","","","http://www.ctlottery.org/Modules/Directory/06074","","41.8462436","'-72.5628728","User provided",""
"LOMBARD DELI GROCERY","297 LOMBARD ST","NEW HAVEN","6513","CT","USA","","","http://www.ctlottery.org/Modules/Directory/06513","","41.3155659","'-72.895618","User provided",""
"Big Y World Class Market #5","179 Stonington Rd","MYSTIC","6355","CT","USA","","","http://www.ctlottery.org/Modules/Directory/06355","","41.3462623","'-71.9534156","User provided",""
"SUPER CELLAR WAREHOUSE LIQUORS","332 W MAIN ST","AVON","6001","CT","USA","","","http://www.ctlottery.org/Modules/Directory/06001","","41.815307","'-72.85961","User provided",""
"Wheels of CT #41","5 Jones Hill Rd","WEST HAVEN","6516","CT","USA","","","http://www.ctlottery.org/Modules/Directory/06516","","41.236557","'-72.985804","User provided",""
"Blues Package Store","139 Barbour St.","HARTFORD","6120","CT","USA","","","http://www.ctlottery.org/Modules/Directory/06120","","41.7891423","'-72.678486","User provided",""
"Maurys Pub","75 Main St","DANIELSON","6239","CT","USA","","","http://www.ctlottery.org/Modules/Directory/06239","","41.8040402","'-71.8850519","User provided",""
"Tony`s Market","100 Bishop Ave","BRIDGEPORT","6607","CT","USA","","","http://www.ctlottery.org/Modules/Directory/06607","","41.1835632","'-73.1565408","User provided",""
"COLONIAL WINE & SPIRIT","1079 FOXON RD","NORTH BRANFORD","6471","CT","USA","","","http://www.ctlottery.org/Modules/Directory/06471","","41.3292261","'-72.7856325","User provided",""
"Wine Cellar","73 State St","NORTH HAVEN","6473","CT","USA","","","http://www.ctlottery.org/Modules/Directory/06473","","41.3875458","'-72.8736463","User provided",""
"V Mart","20 Union City Rd","PROSPECT","6712","CT","USA","","","http://www.ctlottery.org/Modules/Directory/06712","","41.5037852","'-72.9824963","User provided",""
"SHELL FOOD MART","1183 Townsend Ave","NEW HAVEN","6510","CT","USA","","","http://www.ctlottery.org/Modules/Directory/06510","","41.2890182","'-72.8924851","User provided",""
"Stamford Shell","2666 Summer St","STAMFORD","6905","CT","USA","","","http://www.ctlottery.org/Modules/Directory/06905","","41.0690788","'-73.548873","User provided",""
"85 Halls Road Shell","85 Halls Rd","OLD LYME","6371","CT","USA","","","http://www.ctlottery.org/Modules/Directory/06371","","41.3237542","'-72.336742","User provided",""
"Chiquitas Grocery Store","20 Adams Avenue","STAMFORD","6902","CT","USA","","","http://www.ctlottery.org/Modules/Directory/06902","","41.0564224","'-73.5477582","User provided",""
"Cranbury Wines & Liquors","24 Chestnut Hill Rd","NORWALK","6851","CT","USA","","","http://www.ctlottery.org/Modules/Directory/06851","","41.1474","'-73.3950784","User provided",""
"WATERBURY QUICK MART LLC","467 Wolcott St","WATERBURY","6705","CT","USA","","","http://www.ctlottery.org/Modules/Directory/06705","","41.5551314","'-73.014877","User provided",""
"KENT PATCO HANDY STOP","5 S Main St RTE 7 & RTE 341","KENT","6757","CT","USA","","","http://www.ctlottery.org/Modules/Directory/06757","","41.7247554","'-73.4769643","User provided",""
"Cumberland Farms #4760","1978 West Street","SOUTHINGTON","6489","CT","USA","","","http://www.ctlottery.org/Modules/Directory/06489","","41.641317","'-72.9010336","User provided",""
"NORTH ELM MOBIL","100 N ELM ST","TORRINGTON","6790","CT","USA","","","http://www.ctlottery.org/Modules/Directory/06790","","41.812388","'-73.124325","User provided",""
"Ocean Discount Wine & Spirit L","827 Montauk Ave","NEW LONDON","6320","CT","USA","","","http://www.ctlottery.org/Modules/Directory/06320","","41.3231614","'-72.0924224","User provided",""
"Thompson Liquor","520 Riverside Dr","N GROSVENOR DALE","6255","CT","USA","","","http://www.ctlottery.org/Modules/Directory/06255","","41.963579","'-71.8874114","User provided",""
"STOP & SHOP #679","240 CHASE AVE","WATERBURY","6701","CT","USA","","","http://www.ctlottery.org/Modules/Directory/06701","","41.5808811","'-73.0333461","User provided",""
"CAESAR`S LIQUOR STORE","247 LEXINGTON AVE","BRIDGEPORT","6604","CT","USA","","","http://www.ctlottery.org/Modules/Directory/06604","","41.1844028","'-73.1985022","User provided",""
"Bridgeport Minimart","1025 East Main St","BRIDGEPORT","6608","CT","USA","","","http://www.ctlottery.org/Modules/Directory/06608","","41.1886831","'-73.1807321","User provided",""
"BIG Y WORLD CLASS MKT #47","403 MAIN ST","ANSONIA","6401","CT","USA","","","http://www.ctlottery.org/Modules/Directory/06401","","41.3397","'-73.076914","User provided",""
"Jascarli Mini Market","284 Colonial Ave","WATERBURY","6705","CT","USA","","","http://www.ctlottery.org/Modules/Directory/06705","","41.587634","'-73.0603919","User provided",""
"CON MINI MARKET LLC","190 W MAIN ST","STAMFORD","6902","CT","USA","","","http://www.ctlottery.org/Modules/Directory/06902","","41.0501853","'-73.5477537","User provided",""
"HONEYSPOT GULF LLC","245 Honeyspot Rd","STRATFORD","6615","CT","USA","","","http://www.ctlottery.org/Modules/Directory/06615","","41.1812534","'-73.1432096","User provided",""
"COS COB STATIONERY","228 POST RD","COS COB","6807","CT","USA","","","http://www.ctlottery.org/Modules/Directory/06807","","41.036871","'-73.6040898","User provided",""
"Oak St. Pub + Cafe","30 Oak Street","MANCHESTER","6040","CT","USA","","","http://www.ctlottery.org/Modules/Directory/06040","","41.7691756","'-72.5191609","User provided",""
"WEST SIDE SPIRITS","716-718 WEST ST","SOUTHINGTON","6489","CT","USA","","","http://www.ctlottery.org/Modules/Directory/06489","","41.6075402","'-72.8988742","User provided",""
"International Wines & Spirits","148 Shield St","WEST HARTFORD","6110","CT","USA","","","http://www.ctlottery.org/Modules/Directory/06110","","41.7278349","'-72.7202486","User provided",""
"MRS. P`S PETRO MART","441 W Avon Rd","AVON","6001","CT","USA","","","http://www.ctlottery.org/Modules/Directory/06001","","41.787795","'-72.86416","User provided",""
"Cambrense Cafe and Restaurant","4 New Park Ave","HARTFORD","6106","CT","USA","","","http://www.ctlottery.org/Modules/Directory/06106","","41.7570625","'-72.7063287","User provided",""
"On the Go- Newfield","1075 Newfield Street","MIDDLETOWN","6457","CT","USA","","","http://www.ctlottery.org/Modules/Directory/06457","","41.5876647","'-72.6755445","User provided",""
"CUMBERLAND FARMS #4742","1132 Main St.","WILLIMANTIC","6226","CT","USA","","","http://www.ctlottery.org/Modules/Directory/06226","","41.713492","'-72.2223661","User provided",""
"Gulf Express","120 Main Street","TERRYVILLE","6786","CT","USA","","","http://www.ctlottery.org/Modules/Directory/06786","","41.6790209","'-73.002531","User provided",""
"Cromwell Mobil","123 Berlin Rd","CROMWELL","6416","CT","USA","","","http://www.ctlottery.org/Modules/Directory/06416","","41.6050916","'-72.7071536","User provided",""
"New Britain Wine & Liquor","208 Hillhurst Avenue","NEW BRITAIN","6053","CT","USA","","","http://www.ctlottery.org/Modules/Directory/06053","","41.6786841","'-72.8113562","User provided",""
"Kiko Mart","160 Windsor Ave","WINDSOR","6095","CT","USA","","","http://www.ctlottery.org/Modules/Directory/06095","","41.806812","'-72.658204","User provided",""
"Ridgefield Mobil","31 Danbury Rd","RIDGEFIELD","6877","CT","USA","","","http://www.ctlottery.org/Modules/Directory/06877","","41.2897312","'-73.4980484","User provided",""
"RAK Mart","737 North Main St","NORWICH","6360","CT","USA","","","http://www.ctlottery.org/Modules/Directory/06360","","41.542829","'-72.0534321","User provided",""
"A Plus Liquor Store","687 E Main St","WATERBURY","6708","CT","USA","","","http://www.ctlottery.org/Modules/Directory/06708","","41.554046","'-73.028576","User provided",""
"MARANDINO SPIRITS","141 Main St","NEW HARTFORD","6057","CT","USA","","","http://www.ctlottery.org/Modules/Directory/06057","","41.8610003","'-72.9589803","User provided",""
"The Cork Shop","317 East Main St","BRANFORD","6405","CT","USA","","","http://www.ctlottery.org/Modules/Directory/06405","","41.2922155","'-72.7881009","User provided",""
"SAFO`S ENTERPRISES INC","161 TOLLAND TPKE","MANCHESTER","6040","CT","USA","","","http://www.ctlottery.org/Modules/Directory/06040","","41.8129009","'-72.512404","User provided",""
"DINO`S MARKET","1226 State St","BRIDGEPORT","6605","CT","USA","","","http://www.ctlottery.org/Modules/Directory/06605","","41.1711364","'-73.2069188","User provided",""
"Sunoco A Plus","737 West Main Street","NEW BRITAIN","6053","CT","USA","","","http://www.ctlottery.org/Modules/Directory/06053","","41.666725","'-72.806948","User provided",""
"Your Store Deli","137 Kelsey St","NEWINGTON","6111","CT","USA","","","http://www.ctlottery.org/Modules/Directory/06111","","41.6541684","'-72.7462916","User provided",""
"CUMBERLAND FARMS #4567","412 Laurel Hill Rd","NORWICH","6360","CT","USA","","","http://www.ctlottery.org/Modules/Directory/06360","","41.5093489","'-72.0754031","User provided",""
"Fast Freddie`s Manchester #118","1527 Pleasant Valley Rd","MANCHESTER","6040","CT","USA","","","http://www.ctlottery.org/Modules/Directory/06040","","41.805652","'-72.555656","User provided",""
"Arch II","632 Cromwell Ave","ROCKY HILL","6067","CT","USA","","","http://www.ctlottery.org/Modules/Directory/06067","","41.65337","'-72.679002","User provided",""
"TOWN PLOT SUPERMARKET","286 FAIRFIELD AVE","WATERBURY","6708","CT","USA","","","http://www.ctlottery.org/Modules/Directory/06708","","41.536032","'-73.060094","User provided",""
"81 High Mart LLC","260 RTE 80","KILLINGWORTH","6419","CT","USA","","","http://www.ctlottery.org/Modules/Directory/06419","","41.3645651","'-72.4772619","User provided",""
"Barrys Package Store","754 E. Main St","MERIDEN","6450","CT","USA","","","http://www.ctlottery.org/Modules/Directory/06450","","41.52954","'-72.778169","User provided",""
"DISCOUNT LIQUOR","250 Meriden Rd","WATERBURY","6705","CT","USA","","","http://www.ctlottery.org/Modules/Directory/06705","","41.5501514","'-73.0103263","User provided",""
"DAILY MART","1660 Stafford Ave","BURLINGTON","6013","CT","USA","","","http://www.ctlottery.org/Modules/Directory/06013","","41.7213392","'-72.9145899","User provided",""
"7-ELEVEN STORE #32514B","706 MAIN ST","MANCHESTER","6040","CT","USA","","","http://www.ctlottery.org/Modules/Directory/06040","","41.772838","'-72.521732","User provided",""
"YE CORNER SPIRITS","273 MAIN ST","SOUTH MERIDEN","6451","CT","USA","","","http://www.ctlottery.org/Modules/Directory/06451","","41.5198931","'-72.8359116","User provided",""
"Roma Sports Bar + Grill","382-84 Allen Street","NEW BRITAIN","6051","CT","USA","","","http://www.ctlottery.org/Modules/Directory/06051","","41.6818796","'-72.7854017","User provided",""
"SA Cigar & Tobacco","1055 Huntington Turnpike","BRIDGEPORT","6610","CT","USA","","","http://www.ctlottery.org/Modules/Directory/06610","","41.2225114","'-73.1683251","User provided",""
"Goldrick`s Brookside Cafe","143 Rt 2A","PRESTON","6365","CT","USA","","","http://www.ctlottery.org/Modules/Directory/06365","","41.5017213","'-72.0357907","User provided",""
"BIG Y WORLD CLASS MKT #48","65 Palomba Dr","ENFIELD","6082","CT","USA","","","http://www.ctlottery.org/Modules/Directory/06082","","41.9926158","'-72.5722361","User provided",""
"Quick Stop Convenient Store","1125 Willard Ave","NEWINGTON","6111","CT","USA","","","http://www.ctlottery.org/Modules/Directory/06111","","41.6834064","'-72.7310228","User provided",""
"7-ELEVEN STORE #15123A","903 Hartford Tpke","VERNON","6066","CT","USA","","","http://www.ctlottery.org/Modules/Directory/06066","","41.8455804","'-72.454495","User provided",""
"Tropical Deli llc","79 Lake Ave","DANBURY","6810","CT","USA","","","http://www.ctlottery.org/Modules/Directory/06810","","41.3888309","'-73.4705438","User provided",""
"STOP & SHOP #650","1160 Kings Hwy Cutoff","FAIRFIELD","6824","CT","USA","","","http://www.ctlottery.org/Modules/Directory/06824","","41.1506308","'-73.2443083","User provided",""
"Huntington Center Gulf","20 Huntington St","SHELTON","6484","CT","USA","","","http://www.ctlottery.org/Modules/Directory/06484","","41.2959337","'-73.1460934","User provided",""
"MERCURY #41 WETHERSFIELD","151 Silas Deane Hwy","WETHERSFIELD","6109","CT","USA","","","http://www.ctlottery.org/Modules/Directory/06109","","41.723211","'-72.668755","User provided",""
"T-VILLE FOODMART","98 Pearl St","ENFIELD","6082","CT","USA","","","http://www.ctlottery.org/Modules/Directory/06082","","41.9951241","'-72.5989948","User provided",""
"VISELS DRUG STORE INC.","714 DIXWELL AVE","NEW HAVEN","6511","CT","USA","","","http://www.ctlottery.org/Modules/Directory/06511","","41.332667","'-72.935562","User provided",""
"Martinez Mini Market","110 South St","HARTFORD","6114","CT","USA","","","http://www.ctlottery.org/Modules/Directory/06114","","41.7353735","'-72.6759502","User provided",""
"PORTLAND QUICK MART LLC","315 Marlborough St","PORTLAND","6480","CT","USA","","","http://www.ctlottery.org/Modules/Directory/06480","","41.568178","'-72.627769","User provided",""
"MERCURY #43 Westport","322 Post Rd E","WESTPORT","6880","CT","USA","","","http://www.ctlottery.org/Modules/Directory/06880","","41.140737","'-73.3543516","User provided",""
"Shell","1139 Post Rd","FAIRFIELD","6430","CT","USA","","","http://www.ctlottery.org/Modules/Directory/06430","","41.1439601","'-73.2537092","User provided",""
"BIG Y WORLD CLASS MKT#59","504 WINSTED RD","TORRINGTON","6790","CT","USA","","","http://www.ctlottery.org/Modules/Directory/06790","","41.8268507","'-73.1116197","User provided",""
"Cumberland Farms #4758","741 Cromwell Avenue","ROCKY HILL","6067","CT","USA","","","http://www.ctlottery.org/Modules/Directory/06067","","41.650233","'-72.679528","User provided",""
"Alltown Market","520 Middlebury Rd","MIDDLEBURY","6762","CT","USA","","","http://www.ctlottery.org/Modules/Directory/06762","","41.5381527","'-73.1054036","User provided",""
"Fitzgeralds Foods","710 Hopmeadow St","SIMSBURY","6070","CT","USA","","","http://www.ctlottery.org/Modules/Directory/06070","","41.8712788","'-72.8033572","User provided",""
"FOOD BAG #521","326 S COLONY RD","WALLINGFORD","6492","CT","USA","","","http://www.ctlottery.org/Modules/Directory/06492","","41.449698","'-72.82755","User provided",""
"460 Oakland St LLC","460 Oakland St","MANCHESTER","6042","CT","USA","","","http://www.ctlottery.org/Modules/Directory/06042","","41.809032","'-72.5176989","User provided",""
"SUNOCO FOOD MARKET","188 PENNSYLVANIA AVE","NIANTIC","6357","CT","USA","","","http://www.ctlottery.org/Modules/Directory/06357","","41.332576","'-72.199031","User provided",""
"Basil Food Mart Inc","212 Main St","SOUTHINGTON","6489","CT","USA","","","http://www.ctlottery.org/Modules/Directory/06489","","41.597339","'-72.877996","User provided",""
"Dania Foodmart","329 East Center Street","MANCHESTER","6040","CT","USA","","","http://www.ctlottery.org/Modules/Directory/06040","","41.778079","'-72.508464","User provided",""
"Broad St Liquor LLC","1949 Broad St","HARTFORD","6114","CT","USA","","","http://www.ctlottery.org/Modules/Directory/06114","","41.739106","'-72.68733","User provided",""
"GRASMERE DISCOUNT LIQUOR","154 Post Rd","FAIRFIELD","6824","CT","USA","","","http://www.ctlottery.org/Modules/Directory/06824","","41.1522506","'-73.2391054","User provided",""
"City Food Market","126 South Main St","NEW BRITAIN","6051","CT","USA","","","http://www.ctlottery.org/Modules/Directory/06051","","41.6600968","'-72.7787973","User provided",""
"RITE AID #10381","620 Main St","WATERTOWN","6795","CT","USA","","","http://www.ctlottery.org/Modules/Directory/06795","","41.590001","'-73.092215","User provided",""
"Waldi`s Discount Liquor","340 Main St","ANSONIA","6401","CT","USA","","","http://www.ctlottery.org/Modules/Directory/06401","","41.341467","'-73.0780866","User provided",""
"THE CORNER STOP LLC","82 Hemingway Ave","EAST HAVEN","6512","CT","USA","","","http://www.ctlottery.org/Modules/Directory/06512","","41.269407","'-72.8719814","User provided",""
"STOP & SHOP #727","60 PROVIDENCE TPKE","PUTNAM","6260","CT","USA","","","http://www.ctlottery.org/Modules/Directory/06260","","41.9218077","'-71.9047666","User provided",""
"WEST MAIN GROCERY","495 W Main St","STAMFORD","6902","CT","USA","","","http://www.ctlottery.org/Modules/Directory/06902","","41.048401","'-73.5578024","User provided",""
"Super Star Market","96 Sylvan Ave","NEW HAVEN","6519","CT","USA","","","http://www.ctlottery.org/Modules/Directory/06519","","41.304084","'-72.942755","User provided",""
"Centerbrook Food Mart LLC","55 Main Street","CENTERBROOK","6409","CT","USA","","","http://www.ctlottery.org/Modules/Directory/06409","","41.3515737","'-72.4162314","User provided",""
"DANBURY NOBLE LLC","58 PADANARAM RD","DANBURY","6811","CT","USA","","","http://www.ctlottery.org/Modules/Directory/06811","","41.4190933","'-73.4667832","User provided",""
"WEST HAVEN HESS","345 Elm St","WEST HAVEN","6516","CT","USA","","","http://www.ctlottery.org/Modules/Directory/06516","","41.275152","'-72.954629","User provided",""
"A PLUS SUNOCO","163 Bridge St","EAST WINDSOR","6088","CT","USA","","","http://www.ctlottery.org/Modules/Directory/06088","","41.929783","'-72.6097684","User provided",""
"Veterans Convenience","528 Gold Star HWY","GROTON","6340","CT","USA","","","http://www.ctlottery.org/Modules/Directory/06340","","41.371977","'-72.0544496","User provided",""
"Ezer Mart","8 Palmer Rd","SCOTLAND","6264","CT","USA","","","http://www.ctlottery.org/Modules/Directory/06264","","41.698713","'-72.080924","User provided",""
"STORY BROTHERS INC","84 BURRITT ST","NEW BRITAIN","6053","CT","USA","","","http://www.ctlottery.org/Modules/Directory/06053","","41.667298","'-72.798507","User provided",""
"Big Ys Everybodys Market","1021 South Main Street","CHESHIRE","6410","CT","USA","","","http://www.ctlottery.org/Modules/Directory/06410","","41.4762709","'-72.907523","User provided",""
"Winners Hartford","121 Brainard Rd","HARTFORD","6114","CT","USA","","","http://www.ctlottery.org/Modules/Directory/06114","","41.7360666","'-72.6597193","User provided",""
"Gloria Grocery","607 East St","NEW HAVEN","6511","CT","USA","","","http://www.ctlottery.org/Modules/Directory/06511","","41.3160079","'-72.908604","User provided",""
"Shell Food Mart","168 W Town St","NORWICH","6360","CT","USA","","","http://www.ctlottery.org/Modules/Directory/06360","","41.5558863","'-72.1078146","User provided",""
"Crosspoint Liquors","799 New Haven Rd","NAUGATUCK","6770","CT","USA","","","http://www.ctlottery.org/Modules/Directory/06770","","41.4741253","'-73.0422586","User provided",""
"Spicer Marketplace LLC","560 Providence New London TPKE","NORTH STONINGTON","6359","CT","USA","","","http://www.ctlottery.org/Modules/Directory/06359","","41.4403456","'-71.8021371","User provided",""
"Market 32 #248","140 MAIN ST","OXFORD","6478","CT","USA","","","http://www.ctlottery.org/Modules/Directory/06478","","42.098808","'-71.867403","User provided",""
"Jeremys Gift Shop","450 Columbus Blvd","HARTFORD","6103","CT","USA","","","http://www.ctlottery.org/Modules/Directory/06103","","41.7675462","'-72.6689806","User provided",""
"VFW Mystic","60 Stonington Rd","MYSTIC","6355","CT","USA","","","http://www.ctlottery.org/Modules/Directory/06355","","41.34456","'-71.952305","User provided",""
"Marina Market LLC","1056 Reservoir Ave","BRIDGEPORT","6606","CT","USA","","","http://www.ctlottery.org/Modules/Directory/06606","","41.2153471","'-73.1919017","User provided",""
"JOHN`S PACKAGE STORE","98 N MAIN ST","WINSTED","6098","CT","USA","","","http://www.ctlottery.org/Modules/Directory/06098","","41.9237438","'-73.0599966","User provided",""
"SAS Gas LLC","444 Saw Mill Rd","WEST HAVEN","6516","CT","USA","","","http://www.ctlottery.org/Modules/Directory/06516","","41.2730828","'-72.9706323","User provided",""
"Mini Special Market","254 Orchard St","BRIDGEPORT","6608","CT","USA","","","http://www.ctlottery.org/Modules/Directory/06608","","41.1954173","'-73.1779729","User provided",""
"Epicurean Feast","1 American Row","HARTFORD","6103","CT","USA","","","http://www.ctlottery.org/Modules/Directory/06103","","41.7656797","'-72.6715554","User provided",""
"E-Z STOP","35 Old Hartford Rd (RTE 2)","COLCHESTER","6415","CT","USA","","","http://www.ctlottery.org/Modules/Directory/06415","","41.5793254","'-72.3401905","User provided",""
"SUNNYS SUPERMARKET","129 MAIN ST","VOLUNTOWN","6384","CT","USA","","","http://www.ctlottery.org/Modules/Directory/06384","","41.5729211","'-71.8686067","User provided",""
"SUPER STOP & SHOP #651","313 Cottage Grove Rd","BLOOMFIELD","6002","CT","USA","","","http://www.ctlottery.org/Modules/Directory/06002","","41.817556","'-72.7133729","User provided",""
"Brazil Legal LLC","414 West Main Street","STAMFORD","6902","CT","USA","","","http://www.ctlottery.org/Modules/Directory/06902","","41.0478722","'-73.5554782","User provided",""
"Westside Mobil Mart","427 Hartford Rd","MANCHESTER","6040","CT","USA","","","http://www.ctlottery.org/Modules/Directory/06040","","41.764696","'-72.5400329","User provided",""
"STOP & SHOP #616","161 W PUTNAM AVE","GREENWICH","6831","CT","USA","","","http://www.ctlottery.org/Modules/Directory/06831","","41.02758","'-73.631095","User provided",""
"Valero Gas","948 Pine St","BRISTOL","6010","CT","USA","","","http://www.ctlottery.org/Modules/Directory/06010","","41.6690506","'-72.8882192","User provided",""
"Sunny Wine & Spirits","15 Mechanics St","PUTNAM","6260","CT","USA","","","http://www.ctlottery.org/Modules/Directory/06260","","41.9234569","'-71.8994925","User provided",""
"Exxon Mart","208 New Haven Ave","DERBY","6418","CT","USA","","","http://www.ctlottery.org/Modules/Directory/06418","","41.3075498","'-73.069374","User provided",""
"NORWALK EXXON","347 Main Ave","NORWALK","6851","CT","USA","","","http://www.ctlottery.org/Modules/Directory/06851","","41.1381523","'-73.4261776","User provided",""
"Rob`s Wine & Spirits Shoppee","784 Norwich Rd","PLAINFIELD","6374","CT","USA","","","http://www.ctlottery.org/Modules/Directory/06374","","41.6663296","'-71.9159733","User provided",""
"COUNTRY MARKET PLACE","1226 OLD COLCHESTER RD","OAKDALE","6370","CT","USA","","","http://www.ctlottery.org/Modules/Directory/06370","","41.475724","'-72.190898","User provided",""
"Chuckys","407 Jackson St","WILLIMANTIC","6226","CT","USA","","","http://www.ctlottery.org/Modules/Directory/06226","","41.7211325","'-72.202968","User provided",""
"S & O Petroleum LLC","1292 Hartford Turnpike","VERNON","6066","CT","USA","","","http://www.ctlottery.org/Modules/Directory/06066","","41.8593687","'-72.4325019","User provided",""
"Ultra Fuel Quik Mart LLC","58 Ellington Rd","EAST HARTFORD","6108","CT","USA","","","http://www.ctlottery.org/Modules/Directory/06108","","41.7902227","'-72.6291756","User provided",""
"BIG Y WORLD CLASS MKT #61","995 Poquonnock Rd","GROTON","6340","CT","USA","","","http://www.ctlottery.org/Modules/Directory/06340","","41.3468142","'-72.051551","User provided",""
"ALEX`S FOOD MART","26 BROAD ST","NORWALK","6851","CT","USA","","","http://www.ctlottery.org/Modules/Directory/06851","","41.131209","'-73.427254","User provided",""
"HENNY PENNY #43","639 Rte 12","GROTON","6340","CT","USA","","","http://www.ctlottery.org/Modules/Directory/06340","","41.3792287","'-72.0758335","User provided",""
"CIGAR N TOBACCO","519 WOLCOTT ST","WATERBURY","6705","CT","USA","","","http://www.ctlottery.org/Modules/Directory/06705","","41.5565096","'-73.0137525","User provided",""
"BIG Y WORLD CLASS MARKET #84","355 Hawley Ln","STRATFORD","6614","CT","USA","","","http://www.ctlottery.org/Modules/Directory/06614","","41.2336067","'-73.149621","User provided",""
"Black Duck Cafe","605 Riverside Ave","WESTPORT","6880","CT","USA","","","http://www.ctlottery.org/Modules/Directory/06880","","41.1203281","'-73.3697078","User provided",""
"SUPER STOP & SHOP #685","470 Monroe Tpke","MONROE","6468","CT","USA","","","http://www.ctlottery.org/Modules/Directory/06468","","41.3151059","'-73.217621","User provided",""
"BIG Y WORLD CLASS MKT #17","87 W STAFFORD RD (RTE 190)","STAFFORD SPRINGS","6076","CT","USA","","","http://www.ctlottery.org/Modules/Directory/06076","","41.9700145","'-72.3321375","User provided",""
"State Street Spirits","2644 State St","HAMDEN","6517","CT","USA","","","http://www.ctlottery.org/Modules/Directory/06517","","41.353129","'-72.8916364","User provided",""
"Stamford Rx INC","1055 High Ridge Rd","STAMFORD","6905","CT","USA","","","http://www.ctlottery.org/Modules/Directory/06905","","41.1085003","'-73.5468148","User provided",""
"LOU`S FOOD","1255 MADISON AVE","BRIDGEPORT","6606","CT","USA","","","http://www.ctlottery.org/Modules/Directory/06606","","41.1976291","'-73.2084979","User provided",""
"Route 66 Xtra Mart","70 Main St","HEBRON","6248","CT","USA","","","http://www.ctlottery.org/Modules/Directory/06248","","41.6595834","'-72.3597469","User provided",""
"J & J LIQUORS","14 GROVE ST","WATERBURY","6710","CT","USA","","","http://www.ctlottery.org/Modules/Directory/06710","","41.56031","'-73.036483","User provided",""
"Big Dollar Liquor","874 Terryville Ave.","BRISTOL","6010","CT","USA","","","http://www.ctlottery.org/Modules/Directory/06010","","41.6810436","'-72.9804023","User provided",""
"Atafiq LLC","404 Merrow Road","TOLLAND","6084","CT","USA","","","http://www.ctlottery.org/Modules/Directory/06084","","41.8525832","'-72.3369156","User provided",""
"Liquor Mart","3837 Whitney Ave","HAMDEN","6518","CT","USA","","","http://www.ctlottery.org/Modules/Directory/06518","","41.4330131","'-72.9076593","User provided",""
"Sammy Deli LLC","863 Dixwell Ave","HAMDEN","6514","CT","USA","","","http://www.ctlottery.org/Modules/Directory/06514","","41.336815","'-72.9348459","User provided",""
"NAUGATUCK SUNOCO","1059 New Haven Rd","NAUGATUCK","6770","CT","USA","","","http://www.ctlottery.org/Modules/Directory/06770","","41.4694173","'-73.0296549","User provided",""
"Reliable Mini Mart","360 Seymore Ave","DERBY","6418","CT","USA","","","http://www.ctlottery.org/Modules/Directory/06418","","41.3376953","'-73.0901069","User provided",""
"Krauszers Food Store","429 New Haven Ave","DERBY","6418","CT","USA","","","http://www.ctlottery.org/Modules/Directory/06418","","41.3096619","'-73.0629704","User provided",""
"Wine Zone","4180 Black Rock Turnpike","FAIRFIELD","6824","CT","USA","","","http://www.ctlottery.org/Modules/Directory/06824","","41.2034343","'-73.2712716","User provided",""
"A & D Package Store","38 South Turnpike Road","WALLINGFORD","6492","CT","USA","","","http://www.ctlottery.org/Modules/Directory/06492","","41.454493","'-72.840583","User provided",""
"Mile Hill Xtra Mart","1302 Hartford Tpke","VERNON","6066","CT","USA","","","http://www.ctlottery.org/Modules/Directory/06066","","41.8597605","'-72.4317267","User provided",""
"House of Tobacco","1253 New Britain Ave","WEST HARTFORD","6110","CT","USA","","","http://www.ctlottery.org/Modules/Directory/06110","","41.731265","'-72.743788","User provided",""
"COLLINS PACKAGE STORE","552 Halfway House Rd","WINDSOR LOCKS","6096","CT","USA","","","http://www.ctlottery.org/Modules/Directory/06096","","41.9225166","'-72.6664459","User provided",""
"Yale Bowl Wine Spirits","85 Derby Ave","NEW HAVEN","6511","CT","USA","","","http://www.ctlottery.org/Modules/Directory/06511","","41.3110805","'-72.9488981","User provided",""
"EASTWOOD WINE & LIQUORS","1026 MAIN ST","EAST HARTFORD","6108","CT","USA","","","http://www.ctlottery.org/Modules/Directory/06108","","41.7716714","'-72.6422835","User provided",""
"Capitol Gulf","1127 Capitol Ave","HARTFORD","6106","CT","USA","","","http://www.ctlottery.org/Modules/Directory/06106","","41.7599546","'-72.7145807","User provided",""
"BEBE`S LOUNGE INC","40 TAMARACK RD","DANBURY","6811","CT","USA","","","http://www.ctlottery.org/Modules/Directory/06811","","41.4136049","'-73.4510157","User provided",""
"California Grocery","846 Congress Ave","NEW HAVEN","6519","CT","USA","","","http://www.ctlottery.org/Modules/Directory/06519","","41.298552","'-72.943978","User provided",""
"College Mart","333 State Street","BRIDGEPORT","6604","CT","USA","","","http://www.ctlottery.org/Modules/Directory/06604","","41.1756805","'-73.1917316","User provided",""
"Country Mini Market","582 Newfield Avenue","BRIDGEPORT","6607","CT","USA","","","http://www.ctlottery.org/Modules/Directory/06607","","41.1764878","'-73.1670124","User provided",""
"Simeone Enterprises LLC","21 Chamberlain Highway","KENSINGTON","6037","CT","USA","","","http://www.ctlottery.org/Modules/Directory/06037","","41.635062","'-72.788213","User provided",""
"LIQUOR DEPOT","687 W MAIN ST","NEW BRITAIN","6053","CT","USA","","","http://www.ctlottery.org/Modules/Directory/06053","","41.6663507","'-72.8060721","User provided",""
"Smokers Discount World Plus","1094 N Main St","DAYVILLE","6241","CT","USA","","","http://www.ctlottery.org/Modules/Directory/06241","","41.840776","'-71.876231","User provided",""
"ROUTE 66 PACKAGE STORE LLC","193 E High St","EAST HAMPTON","6424","CT","USA","","","http://www.ctlottery.org/Modules/Directory/06424","","41.5998049","'-72.4881262","User provided",""
"Rodriguez Market LLC","216 Hamilton Street","HARTFORD","6106","CT","USA","","","http://www.ctlottery.org/Modules/Directory/06106","","41.7539336","'-72.7029597","User provided",""
"KRAUSZER`S","1959 State St","HAMDEN","6517","CT","USA","","","http://www.ctlottery.org/Modules/Directory/06517","","41.335405","'-72.899825","User provided",""
"D`APRILE PACKAGE STORE LLC","288 FRANKLIN AVE","HARTFORD","6114","CT","USA","","","http://www.ctlottery.org/Modules/Directory/06114","","41.7425542","'-72.6762477","User provided",""
"FRENCH ITALIAN IMPORTING CO","4 Circular Ave","HAMDEN","6514","CT","USA","","","http://www.ctlottery.org/Modules/Directory/06514","","41.3465515","'-72.9341397","User provided",""
"North Haven Mobil","384 State St","NORTH HAVEN","6473","CT","USA","","","http://www.ctlottery.org/Modules/Directory/06473","","41.3671937","'-72.8875503","User provided",""
"CENTRAL VILLAGE SHELL","50 E Main St","MOOSUP","6354","CT","USA","","","http://www.ctlottery.org/Modules/Directory/06354","","41.719747","'-71.898204","User provided",""
"PRESTON MARKET LLC","352 RTE 2","PRESTON","6365","CT","USA","","","http://www.ctlottery.org/Modules/Directory/06365","","41.490621","'-72.0032263","User provided",""
"Manousos Wine & Liquors","398 Silas Deane Hyw","WETHERSFIELD","6109","CT","USA","","","http://www.ctlottery.org/Modules/Directory/06109","","41.715776","'-72.664267","User provided",""
"Norwich Foodmart","406 West Main Street","NORWICH","6360","CT","USA","","","http://www.ctlottery.org/Modules/Directory/06360","","41.5208388","'-72.0922611","User provided",""
"West Side Market Inc","1411 Park Ave","BRIDGEPORT","6604","CT","USA","","","http://www.ctlottery.org/Modules/Directory/06604","","41.1795311","'-73.2030814","User provided",""
"BELLTOWN VARIETY","24 BELLTOWN RD","STAMFORD","6905","CT","USA","","","http://www.ctlottery.org/Modules/Directory/06905","","41.0767916","'-73.5312582","User provided",""
"STOP & SHOP #640","385 Connecticut Avenue","NORWALK","6856","CT","USA","","","http://www.ctlottery.org/Modules/Directory/06856","","41.0998329","'-73.440599","User provided",""
"SOUTH SHORE WINE & SPIRITS","670 Coe Ave","EAST HAVEN","6512","CT","USA","","","http://www.ctlottery.org/Modules/Directory/06512","","41.2658995","'-72.8726948","User provided",""
"The Wine Cellar","346 A South Main St","MIDDLETOWN","6457","CT","USA","","","http://www.ctlottery.org/Modules/Directory/06457","","41.5469161","'-72.6506862","User provided",""
"Alltown Orange N #828","Wilbur Cross Parkway N","ORANGE","6477","CT","USA","","","http://www.ctlottery.org/Modules/Directory/06477","","41.2797608","'-73.0479824","User provided",""
"Jays Mobil on the Run","356 Bloomfield Avenue","WINDSOR","6095","CT","USA","","","http://www.ctlottery.org/Modules/Directory/06095","","41.8522712","'-72.6633827","User provided",""
"GLENWOOD WINE & SPIRITS OUTLET","140 Killingworth Tpke","CLINTON","6413","CT","USA","","","http://www.ctlottery.org/Modules/Directory/06413","","41.3096065","'-72.5389356","User provided",""
"SOUTH WINDSOR LIQUORS","653 John Fitch Blvd","SOUTH WINDSOR","6074","CT","USA","","","http://www.ctlottery.org/Modules/Directory/06074","","41.8207299","'-72.6089984","User provided",""
"VALLEY LIQUORS","1221 New Haven Rd","NAUGATUCK","6770","CT","USA","","","http://www.ctlottery.org/Modules/Directory/06770","","41.4678516","'-73.020923","User provided",""
"STOP & SHOP #612","11 GLEN RIDGE RD","GREENWICH","6831","CT","USA","","","http://www.ctlottery.org/Modules/Directory/06831","","41.0389605","'-73.6673491","User provided",""
"ShopRite of Southington LLC","750 Queen St","SOUTHINGTON","6489","CT","USA","","","http://www.ctlottery.org/Modules/Directory/06489","","41.6372727","'-72.8738439","User provided",""
"CARALUZZI`S GEORGETOWN MKT","920 Danbury Rd","WILTON","6897","CT","USA","","","http://www.ctlottery.org/Modules/Directory/06897","","41.256918","'-73.4339858","User provided",""
"Willington TravelCenter","327 Ruby Rd","WILLINGTON","6279","CT","USA","","","http://www.ctlottery.org/Modules/Directory/06279","","41.9177737","'-72.2606714","User provided",""
"CONTE`S PACKAGE STORE","970-972 Madison Ave","BRIDGEPORT","6606","CT","USA","","","http://www.ctlottery.org/Modules/Directory/06606","","41.1942937","'-73.2060118","User provided",""
"STATELINE WINE & SPIRITS LLC","19 E Main St","NORTH CANAAN","6018","CT","USA","","","http://www.ctlottery.org/Modules/Directory/06018","","42.0238083","'-73.3221157","User provided",""
"Shamsan Deli & Grocery Inc","248 Grand Ave","NEW HAVEN","6513","CT","USA","","","http://www.ctlottery.org/Modules/Directory/06513","","41.3088728","'-72.8970707","User provided",""
"Shippan Candies","320 Shippan Avenue","STAMFORD","6902","CT","USA","","","http://www.ctlottery.org/Modules/Directory/06902","","41.0467311","'-73.5240203","User provided",""
"FOOD BAG #508","54 S Broad St","MERIDEN","6450","CT","USA","","","http://www.ctlottery.org/Modules/Directory/06450","","41.520406","'-72.802755","User provided",""
"C & J Tobacco Barn","194 Buckland St Suite 1122","MANCHESTER","6040","CT","USA","","","http://www.ctlottery.org/Modules/Directory/06040","","41.8040244","'-72.5538622","User provided",""
"BIG Y WORLD CLASS MKT#36","275 NEW BRITAIN AVE","PLAINVILLE","6062","CT","USA","","","http://www.ctlottery.org/Modules/Directory/06062","","41.6762055","'-72.8396451","User provided",""
"Route 4 Quick Stop LLC","46 Farmington Ave","FARMINGTON","6032","CT","USA","","","http://www.ctlottery.org/Modules/Directory/06032","","41.7454985","'-72.7820377","User provided",""
"Monroe Mobil","405 Monroe Tkpe","MONROE","6468","CT","USA","","","http://www.ctlottery.org/Modules/Directory/06468","","41.3109344","'-73.2212454","User provided",""
"SAM FOOD STORE","125 N EAGLEVILLE RD","STORRS","6269","CT","USA","","","http://www.ctlottery.org/Modules/Directory/06269","","41.809124","'-72.2605646","User provided",""
"Papis Stores","1316 State Street","NEW HAVEN","6511","CT","USA","","","http://www.ctlottery.org/Modules/Directory/06511","","41.3191839","'-72.898954","User provided",""
"NEWTOWN CONVENIENCE","22 CHURCH HILL RD","NEWTOWN","6470","CT","USA","","","http://www.ctlottery.org/Modules/Directory/06470","","41.413984","'-73.3025","User provided",""
"M & M Convenience","2000 Barnum Avenue","STRATFORD","6615","CT","USA","","","http://www.ctlottery.org/Modules/Directory/06615","","41.1925677","'-73.1479815","User provided",""
"QuisQuella Mini Market #2","815 Madison Ave","BRIDGEPORT","6606","CT","USA","","","http://www.ctlottery.org/Modules/Directory/06606","","41.1924428","'-73.2046038","User provided",""
"Henny Penny Seymour","2 New Haven Road","SEYMOUR","6483","CT","USA","","","http://www.ctlottery.org/Modules/Directory/06483","","41.397315","'-73.0709108","User provided",""
"7-ELEVEN STORE #32946B","183 S Main St.","EAST WINDSOR","6088","CT","USA","","","http://www.ctlottery.org/Modules/Directory/06088","","41.885233","'-72.606883","User provided",""
"Carlas Supermarket","660 Blue Hills Ave","HARTFORD","6112","CT","USA","","","http://www.ctlottery.org/Modules/Directory/06112","","41.8051622","'-72.6954699","User provided",""
"Krauszer`s Food Store","544 Derby Ave","WEST HAVEN","6516","CT","USA","","","http://www.ctlottery.org/Modules/Directory/06516","","41.3040023","'-72.9754314","User provided",""
"A Plus Uncasville LLC","568 Norwich New London Tpke","UNCASVILLE","6382","CT","USA","","","http://www.ctlottery.org/Modules/Directory/06382","","41.4415045","'-72.1061827","User provided",""
"STOP & SHOP #657","763 Straits Tpke","WATERTOWN","6795","CT","USA","","","http://www.ctlottery.org/Modules/Directory/06795","","41.5708418","'-73.0989437","User provided",""
"ULTRA FOOD & FUEL","788 WEST MAIN ST","NEW BRITAIN","6053","CT","USA","","","http://www.ctlottery.org/Modules/Directory/06053","","41.666509","'-72.809322","User provided",""
"Chino & Sons","1779 East Main","BRIDGEPORT","6610","CT","USA","","","http://www.ctlottery.org/Modules/Directory/06610","","41.1990589","'-73.1805204","User provided",""
"New Moon Chinese Restaurant","56 Bridge St","NAUGATUCK","6770","CT","USA","","","http://www.ctlottery.org/Modules/Directory/06770","","41.5006114","'-73.0534952","User provided",""
"GEISSLER`S SUPERMARKET INC","318 BROAD STREET","WINDSOR","6095","CT","USA","","","http://www.ctlottery.org/Modules/Directory/06095","","41.84942","'-72.64588","User provided",""
"WHISKEY PETES BEVERAGE MART","749 SAYBROOK RD","MIDDLETOWN","6457","CT","USA","","","http://www.ctlottery.org/Modules/Directory/06457","","41.5370958","'-72.616374","User provided",""
"M & A 36E Main Citgo LLC","36 East Main Street","BRISTOL","6010","CT","USA","","","http://www.ctlottery.org/Modules/Directory/06010","","41.6726031","'-72.8965433","User provided",""
"CHESTERFIELD LIQUOR","1596 RTE 85","OAKDALE","6370","CT","USA","","","http://www.ctlottery.org/Modules/Directory/06370","","41.429089","'-72.2170283","User provided",""
"Papi`s Liquor","71 Lake Ave","DANBURY","6810","CT","USA","","","http://www.ctlottery.org/Modules/Directory/06810","","41.3886735","'-73.4700087","User provided",""
"Tiger Liquors","1518 Main Street","EAST HARTFORD","6108","CT","USA","","","http://www.ctlottery.org/Modules/Directory/06108","","41.7788457","'-72.6367131","User provided",""
"SCOTTS AVON MOBIL","411 W Main St","AVON","6001","CT","USA","","","http://www.ctlottery.org/Modules/Directory/06001","","41.816392","'-72.866828","User provided",""
"Trumbull Food Mart LLC","648 White Plains Road","TRUMBULL","6611","CT","USA","","","http://www.ctlottery.org/Modules/Directory/06611","","41.2397715","'-73.1872792","User provided",""
"On The Go Valero","1 South St","WEST HARTFORD","6110","CT","USA","","","http://www.ctlottery.org/Modules/Directory/06110","","41.729595","'-72.723938","User provided",""
"Sams Food Store #1036","106 Sisson Ave","HARTFORD","6106","CT","USA","","","http://www.ctlottery.org/Modules/Directory/06106","","41.760896","'-72.7065645","User provided",""
"J & M Variety","520 West Ave","NORWALK","6850","CT","USA","","","http://www.ctlottery.org/Modules/Directory/06850","","41.1120937","'-73.416678","User provided",""
"REDENTIS PACKAGE STORE","229 GRAND AVE","NEW HAVEN","6513","CT","USA","","","http://www.ctlottery.org/Modules/Directory/06513","","41.309358","'-72.896248","User provided",""
"Odie`s Place","3352 Whitney Ave","HAMDEN","6518","CT","USA","","","http://www.ctlottery.org/Modules/Directory/06518","","41.4164212","'-72.9030528","User provided",""
"Blake Street Convenience","295 Blake St","NEW HAVEN","6515","CT","USA","","","http://www.ctlottery.org/Modules/Directory/06515","","41.3277069","'-72.953176","User provided",""
"Tobacco Express","3634 Main Street","STRATFORD","6614","CT","USA","","","http://www.ctlottery.org/Modules/Directory/06614","","41.209508","'-73.1296862","User provided",""
"Luckey Star LLC","37 Migeon Ave","TORRINGTON","6790","CT","USA","","","http://www.ctlottery.org/Modules/Directory/06790","","41.803659","'-73.128136","User provided",""
"SPENDLESS DISCOUNT LIQUORS","210 Spencer St","MANCHESTER","6040","CT","USA","","","http://www.ctlottery.org/Modules/Directory/06040","","41.765997","'-72.570358","User provided",""
"Scotts Village Mobil","843 Farmington Ave","FARMINGTON","6032","CT","USA","","","http://www.ctlottery.org/Modules/Directory/06032","","41.7273784","'-72.8266666","User provided",""
"Porky`s Cafe Inc","50 Center Street","SHELTON","6484","CT","USA","","","http://www.ctlottery.org/Modules/Directory/06484","","41.3164633","'-73.0934743","User provided",""
"PARK STREET PACKAGE STORE","598-602 Park St","HARTFORD","6106","CT","USA","","","http://www.ctlottery.org/Modules/Directory/06106","","41.753827","'-72.741043","User provided",""
"Amaya Grocery","177 Ferry Street","NEW HAVEN","6513","CT","USA","","","http://www.ctlottery.org/Modules/Directory/06513","","41.3046733","'-72.8943283","User provided",""
"MORRIS SPIRIT SHOP","19 WEST ST","MORRIS","6763","CT","USA","","","http://www.ctlottery.org/Modules/Directory/06763","","41.6826719","'-73.2011349","User provided",""
"FAIRLAWN PACKAGE STORE LLC","101 PARK RD","WEST HARTFORD","6119","CT","USA","","","http://www.ctlottery.org/Modules/Directory/06119","","41.757141","'-72.719333","User provided",""
"MC LIQUORS INC.","503 FROST RD","WATERBURY","6705","CT","USA","","","http://www.ctlottery.org/Modules/Directory/06705","","41.553206","'-73.0004476","User provided",""
"TONYS LITTLE STORE","1436 ENFIELD ST","ENFIELD","6082","CT","USA","","","http://www.ctlottery.org/Modules/Directory/06082","","41.9675127","'-72.5929029","User provided",""
"2103 Storrs Rd LLC","2103 Storrs Rd","STORRS","6268","CT","USA","","","http://www.ctlottery.org/Modules/Directory/06268","","41.8349619","'-72.3070973","User provided",""
"Wines N Liquor Outlet LLC","810 Lakewood Road","WATERBURY","6704","CT","USA","","","http://www.ctlottery.org/Modules/Directory/06704","","41.5710336","'-73.008442","User provided",""
"George Street Deli","802 George Street Unit 2","NEW HAVEN","6511","CT","USA","","","http://www.ctlottery.org/Modules/Directory/06511","","41.310487","'-72.949988","User provided",""
"SMALLEY BROTHERS VFW POST 6123","36 FAIRVIEW ST","WINDSOR LOCKS","6096","CT","USA","","","http://www.ctlottery.org/Modules/Directory/06096","","41.9378735","'-72.6265652","User provided",""
"Spring Hill Liquor LLC","1 Spring Hill Ave","NORWALK","6850","CT","USA","","","http://www.ctlottery.org/Modules/Directory/06850","","41.118288","'-73.421329","User provided",""
"Corner Mini Mart","760 North Main Street","NORWICH","6360","CT","USA","","","http://www.ctlottery.org/Modules/Directory/06360","","41.543624","'-72.0545832","User provided",""
"A & H Convenience LLC","334 Liberty St","MERIDEN","6450","CT","USA","","","http://www.ctlottery.org/Modules/Directory/06450","","41.534685","'-72.785368","User provided",""
"7-ELEVEN STORE #32526B","4 Falls Rd","MOODUS","6469","CT","USA","","","http://www.ctlottery.org/Modules/Directory/06469","","41.502919","'-72.449602","User provided",""
"MONROE FOOD MART INC.","487 Monroe Tpke","MONROE","6468","CT","USA","","","http://www.ctlottery.org/Modules/Directory/06468","","41.3161365","'-73.2169267","User provided",""
"24/7 Express","1607 Barnum Avenue","STRATFORD","6614","CT","USA","","","http://www.ctlottery.org/Modules/Directory/06614","","41.1947855","'-73.1413893","User provided",""
"Plaza Liquors","863 Beckley Rd","EAST BERLIN","6023","CT","USA","","","http://www.ctlottery.org/Modules/Directory/06023","","41.6170908","'-72.727297","User provided",""
"Prospect Smoke Shop","50 Waterbury Rd Unit F","PROSPECT","6712","CT","USA","","","http://www.ctlottery.org/Modules/Directory/06712","","41.5099559","'-72.9825081","User provided",""
"AYESHA FOOD MART","1627 SAYBROOK RD","HADDAM","6438","CT","USA","","","http://www.ctlottery.org/Modules/Directory/06438","","41.4465196","'-72.4741167","User provided",""
"STOP & SHOP #662","380 MAIN ST","NORWALK","6850","CT","USA","","","http://www.ctlottery.org/Modules/Directory/06850","","41.1315696","'-73.4236386","User provided",""
"Michaels Hess Gas Station","122 Boston Post Rd","WATERFORD","6385","CT","USA","","","http://www.ctlottery.org/Modules/Directory/06385","","41.341285","'-72.125156","User provided",""
"Sams Food Store","500 Providence Rd","BROOKLYN","6234","CT","USA","","","http://www.ctlottery.org/Modules/Directory/06234","","41.798114","'-71.907782","User provided",""
"WEST SIDE PACKAGE INC.","408 CHURCH ST","TORRINGTON","6790","CT","USA","","","http://www.ctlottery.org/Modules/Directory/06790","","41.804707","'-73.131586","User provided",""
"Family Financial Centers","1332 North Avenue","BRIDGEPORT","6604","CT","USA","","","http://www.ctlottery.org/Modules/Directory/06604","","41.1879786","'-73.201796","User provided",""
"Mercury #47 Plainville","301 East Street","PLAINVILLE","6062","CT","USA","","","http://www.ctlottery.org/Modules/Directory/06062","","41.6588511","'-72.8665943","User provided",""
"WAYSIDE LIQUORS LLC","2738 S Main St","WATERBURY","6706","CT","USA","","","http://www.ctlottery.org/Modules/Directory/06706","","41.5154732","'-73.047462","User provided",""
"Tolland Xtra Mart","153 Hartford Tpke","TOLLAND","6084","CT","USA","","","http://www.ctlottery.org/Modules/Directory/06084","","41.8658504","'-72.4182542","User provided",""
"TAVERN HOUSE GRILL","200 MERROW RD","TOLLAND","6084","CT","USA","","","http://www.ctlottery.org/Modules/Directory/06084","","41.8596765","'-72.3547457","User provided",""
"DM Grocers","292 Boston Post Rd","NORTH WINDHAM","6256","CT","USA","","","http://www.ctlottery.org/Modules/Directory/06256","","41.7375288","'-72.1808816","User provided",""
"Greenwich BP","1324 E Putnam Ave","OLD GREENWICH","6870","CT","USA","","","http://www.ctlottery.org/Modules/Directory/06870","","41.042992","'-73.574283","User provided",""
"Acme Markets #2497","1261 E Putnam Ave","RIVERSIDE","6878","CT","USA","","","http://www.ctlottery.org/Modules/Directory/06878","","41.0419883","'-73.5774412","User provided",""
"MERCURY #30 WINSTED","29 MAIN ST","WINSTED","6098","CT","USA","","","http://www.ctlottery.org/Modules/Directory/06098","","41.9234296","'-73.0600706","User provided",""
"Express Convenience and Deli","715 Burnside Ave","EAST HARTFORD","6108","CT","USA","","","http://www.ctlottery.org/Modules/Directory/06108","","41.779564","'-72.6081655","User provided",""
"H & F Petroleum LLC","201 North St","BRISTOL","6010","CT","USA","","","http://www.ctlottery.org/Modules/Directory/06010","","41.6816786","'-72.9431671","User provided",""
"HENNY PENNY #22","1673 RTE 12 & CHAPMAN LN","GALES FERRY","6335","CT","USA","","","http://www.ctlottery.org/Modules/Directory/06335","","41.4306676","'-72.0837385","User provided",""
"Track News & Variety","30 Station Place","STAMFORD","6902","CT","USA","","","http://www.ctlottery.org/Modules/Directory/06902","","41.0459537","'-73.5418942","User provided",""
"ZA Grocery","856 Fairfield Ave","BRIDGEPORT","6604","CT","USA","","","http://www.ctlottery.org/Modules/Directory/06604","","41.1745049","'-73.2010123","User provided",""
"RITE AID #10350","203 Kennedy Dr","PUTNAM","6260","CT","USA","","","http://www.ctlottery.org/Modules/Directory/06260","","41.9173431","'-71.9102081","User provided",""
"STOP & SHOP #654","485 Broad St","MERIDEN","6450","CT","USA","","","http://www.ctlottery.org/Modules/Directory/06450","","41.532592","'-72.791467","User provided",""
"CENTERBROOK SHELL","23 Main St","CENTERBROOK","6409","CT","USA","","","http://www.ctlottery.org/Modules/Directory/06409","","41.352018","'-72.4102687","User provided",""
"Super Stop & Shop #2606","176 Newington Rd","WEST HARTFORD","6110","CT","USA","","","http://www.ctlottery.org/Modules/Directory/06110","","41.725463","'-72.731292","User provided",""
"The Eleven Bar & Grille LLC","173 Rubber Avenue","NAUGATUCK","6770","CT","USA","","","http://www.ctlottery.org/Modules/Directory/06770","","41.486916","'-73.0609141","User provided",""
"Anas Food Mart Inc","720 Foxon Road","EAST HAVEN","6512","CT","USA","","","http://www.ctlottery.org/Modules/Directory/06512","","41.3221235","'-72.8542524","User provided",""
"All Star Gas LLC","54 Padanaram Rd","DANBURY","6811","CT","USA","","","http://www.ctlottery.org/Modules/Directory/06811","","41.418256","'-73.466119","User provided",""
"GEISSLER`S SUPERMARKET INC","40 Tunix Ave","BLOOMFIELD","6002","CT","USA","","","http://www.ctlottery.org/Modules/Directory/06002","","41.8350449","'-72.7374889","User provided",""
"Friendly Food Mart","867 Wethersfield Ave","HARTFORD","6114","CT","USA","","","http://www.ctlottery.org/Modules/Directory/06114","","41.732294","'-72.6699516","User provided",""
"Colonial Wine & Liquors","160 Kukas Ln","WATERBURY","6705","CT","USA","","","http://www.ctlottery.org/Modules/Directory/06705","","41.5368769","'-73.005022","User provided",""
"NORTH MAIN PACKAGE STORE","141 N Main St","ANSONIA","6401","CT","USA","","","http://www.ctlottery.org/Modules/Directory/06401","","41.3519859","'-73.081402","User provided",""
"FITCH STREET GETTY","158 Fitch St","NEW HAVEN","6510","CT","USA","","","http://www.ctlottery.org/Modules/Directory/06510","","41.327486","'-72.953799","User provided",""
"Thompsonville Moose Lodge","124 South Road","ENFIELD","6082","CT","USA","","","http://www.ctlottery.org/Modules/Directory/06082","","41.9772987","'-72.5672889","User provided",""
"LARRY`S TWO","35 BURNSIDE AVE","EAST HARTFORD","6108","CT","USA","","","http://www.ctlottery.org/Modules/Directory/06108","","41.7741829","'-72.6385932","User provided",""
"Thomaston Lanes","180 Watertown Rd","THOMASTON","6787","CT","USA","","","http://www.ctlottery.org/Modules/Directory/06787","","41.658508","'-73.086681","User provided",""
"Juliannes Wines & Liquor","2669 Fairfield Avenue","BRIDGEPORT","6605","CT","USA","","","http://www.ctlottery.org/Modules/Directory/06605","","41.1592608","'-73.2246671","User provided",""
"West Side Package","2045 Fairfield Avenue","BRIDGEPORT","6605","CT","USA","","","http://www.ctlottery.org/Modules/Directory/06605","","41.1660658","'-73.21781","User provided",""
"SUPER STOP & SHOP #697","1094 Killingly Commons Dr","DAYVILLE","6241","CT","USA","","","http://www.ctlottery.org/Modules/Directory/06241","","41.841588","'-71.8808663","User provided",""
"REDDING PHARMACY INC.","73 Redding Rd","GEORGETOWN","6829","CT","USA","","","http://www.ctlottery.org/Modules/Directory/06829","","41.2597953","'-73.427701","User provided",""
"Main Convenience LLC","160 West Main St","MERIDEN","6451","CT","USA","","","http://www.ctlottery.org/Modules/Directory/06451","","41.538459","'-72.8082263","User provided",""
"United Grocery","237 Jefferson Ave","NEW LONDON","6320","CT","USA","","","http://www.ctlottery.org/Modules/Directory/06320","","41.356206","'-72.1118","User provided",""
"GI PACKAGE STORE","282 FERRY ST","NEW HAVEN","6513","CT","USA","","","http://www.ctlottery.org/Modules/Directory/06513","","41.3072926","'-72.8952862","User provided",""
"Krauszer`s","577 Chase Ave","WATERBURY","6704","CT","USA","","","http://www.ctlottery.org/Modules/Directory/06704","","41.5847704","'-73.0410332","User provided",""
"Prospect Shell","28 Waterbury Road","PROSPECT","6712","CT","USA","","","http://www.ctlottery.org/Modules/Directory/06712","","41.5081894","'-72.9809634","User provided",""
"Kenco Spirits","17 Main Street","SOUTH WINDSOR","6074","CT","USA","","","http://www.ctlottery.org/Modules/Directory/06074","","41.7989743","'-72.6309115","User provided",""
"CUMBERLAND FARMS #4727","9 RIVER RD","STAFFORD SPRINGS","6076","CT","USA","","","http://www.ctlottery.org/Modules/Directory/06076","","41.9513055","'-72.3040711","User provided",""
"Aman Mini Mart","29 Railroad Avenue","PLAINFIELD","6374","CT","USA","","","http://www.ctlottery.org/Modules/Directory/06374","","41.679711","'-71.918271","User provided",""
"SOUTH MAIN LIQ & WINE","857 S Main St.","PLANTSVILLE","6479","CT","USA","","","http://www.ctlottery.org/Modules/Directory/06479","","41.5850502","'-72.8918413","User provided",""
"STOP & SHOP #626","148 HEIGHTS RD","DARIEN","6820","CT","USA","","","http://www.ctlottery.org/Modules/Directory/06820","","41.0692077","'-73.496203","User provided",""
"HIGHLAND PARK MARKET","317 HIGHLAND ST","MANCHESTER","6040","CT","USA","","","http://www.ctlottery.org/Modules/Directory/06040","","41.7660072","'-72.4902715","User provided",""
"DOUBLE R INC","1 Oxford Rd","OXFORD","6478","CT","USA","","","http://www.ctlottery.org/Modules/Directory/06478","","41.4005649","'-73.089502","User provided",""
"SAM`S FOOD STORE","485 Ocean Ave","NEW LONDON","6320","CT","USA","","","http://www.ctlottery.org/Modules/Directory/06320","","41.332889","'-72.1042003","User provided",""
"The Cordial Shop","91 Railroad St","NORTH CANAAN","6018","CT","USA","","","http://www.ctlottery.org/Modules/Directory/06018","","42.0299356","'-73.3281527","User provided",""
"BARNUM WINE AND SPIRITS INC","1340 Barnum Ave","STRATFORD","6614","CT","USA","","","http://www.ctlottery.org/Modules/Directory/06614","","41.1977877","'-73.135404","User provided",""
"32528 Unionville Inc","70 S Main St","UNIONVILLE","6085","CT","USA","","","http://www.ctlottery.org/Modules/Directory/06085","","41.7555796","'-72.8867942","User provided",""
"SHELTON SQUARE SPIRITS","864 BRIDGEPORT AVE","SHELTON","6484","CT","USA","","","http://www.ctlottery.org/Modules/Directory/06484","","41.2650484","'-73.1328411","User provided",""
"Best Way","6 Boston Post Rd","WATERFORD","6385","CT","USA","","","http://www.ctlottery.org/Modules/Directory/06385","","41.3436999","'-72.1133137","User provided",""
"MERCURY #32 Haddam","1598 Saybrook Rd","HADDAM","6438","CT","USA","","","http://www.ctlottery.org/Modules/Directory/06438","","41.448253","'-72.475284","User provided",""
"FAS MART #314","1101 East Main Street","MERIDEN","6450","CT","USA","","","http://www.ctlottery.org/Modules/Directory/06450","","41.5256789","'-72.766708","User provided",""
"VASCOS LIQUOR STORE","875 Noble Ave","BRIDGEPORT","6608","CT","USA","","","http://www.ctlottery.org/Modules/Directory/06608","","41.1935386","'-73.1839165","User provided",""
"Shop Smart","43 New Haven Rd","SEYMOUR","6483","CT","USA","","","http://www.ctlottery.org/Modules/Directory/06483","","41.3970781","'-73.0624227","User provided",""
"Cromwell Square Wine & Liquors","51 Shunpike Rd Suite 22","CROMWELL","6416","CT","USA","","","http://www.ctlottery.org/Modules/Directory/06416","","41.6056705","'-72.6769869","User provided",""
"A & J Mini Mart","912 East Main St","STAMFORD","6902","CT","USA","","","http://www.ctlottery.org/Modules/Directory/06902","","41.0560346","'-73.5226801","User provided",""
"KRAUSZER`S FOOD STORE","357 Cromwell Ave","ROCKY HILL","6067","CT","USA","","","http://www.ctlottery.org/Modules/Directory/06067","","41.660566","'-72.6789639","User provided",""
"In n Out Mart inc","186 Bridgeport Ave","MILFORD","6460","CT","USA","","","http://www.ctlottery.org/Modules/Directory/06460","","41.202079","'-73.102848","User provided",""
"STOP & SHOP #637","2200 BEDFORD ST","STAMFORD","6905","CT","USA","","","http://www.ctlottery.org/Modules/Directory/06905","","41.0687484","'-73.545187","User provided",""
"VFW Post 10004","263 Taylor Hill Road","JEWETT CITY","6351","CT","USA","","","http://www.ctlottery.org/Modules/Directory/06351","","41.6007033","'-71.9724322","User provided",""
"OAKWOOD PACKAGE STORE","195 OAKWOOD AVE","WEST HARTFORD","6119","CT","USA","","","http://www.ctlottery.org/Modules/Directory/06119","","41.7511869","'-72.7218247","User provided",""
"DeLavinia`s","2 E Hayestown Rd","DANBURY","6811","CT","USA","","","http://www.ctlottery.org/Modules/Directory/06811","","41.417226","'-73.451424","User provided",""
"Old Saybrook VFW Post 10153","315 Essex Road","OLD SAYBROOK","6475","CT","USA","","","http://www.ctlottery.org/Modules/Directory/06475","","41.324618","'-72.375988","User provided",""
"Gulf Express","379 Ellington Rd","EAST HARTFORD","6108","CT","USA","","","http://www.ctlottery.org/Modules/Directory/06108","","41.7981265","'-72.6192065","User provided",""
"TCB Bar & Billiards","348 Sackett Pt Rd","NORTH HAVEN","6473","CT","USA","","","http://www.ctlottery.org/Modules/Directory/06473","","41.3674123","'-72.8751028","User provided",""
"168 York St Cafe","168 York St","NEW HAVEN","6511","CT","USA","","","http://www.ctlottery.org/Modules/Directory/06511","","41.308158","'-72.932154","User provided",""
"COVE ROAD MINI MART","314 Cove Rd","STAMFORD","6902","CT","USA","","","http://www.ctlottery.org/Modules/Directory/06902","","41.049545","'-73.519691","User provided",""
"AJ SERVICES LLC","358 WALNUT ST","WATERBURY","6704","CT","USA","","","http://www.ctlottery.org/Modules/Directory/06704","","41.56121","'-73.025879","User provided",""
"Sam`s Quick Stop","9 Asylum Street","HARTFORD","6103","CT","USA","","","http://www.ctlottery.org/Modules/Directory/06103","","41.7665567","'-72.6734789","User provided",""
"BIG Y WORLD CLASS MKT #49","6 QUEEN ST","NEWTOWN","6470","CT","USA","","","http://www.ctlottery.org/Modules/Directory/06470","","41.41228","'-73.304388","User provided",""
"RKB Enterprise Inc","115 Berlin Rd","CROMWELL","6416","CT","USA","","","http://www.ctlottery.org/Modules/Directory/06416","","41.6033537","'-72.7019169","User provided",""
"East Brook Ultra LLC","7 Storrs Rd","MANSFIELD CENTER","6250","CT","USA","","","http://www.ctlottery.org/Modules/Directory/06250","","41.7284726","'-72.2014528","User provided",""
"Winners Bristol","16 Barlow St","BRISTOL","6010","CT","USA","","","http://www.ctlottery.org/Modules/Directory/06010","","41.6727867","'-72.9762663","User provided",""
"KRAUSZER`S FOOD STORES","911 Campbell Ave","WEST HAVEN","6516","CT","USA","","","http://www.ctlottery.org/Modules/Directory/06516","","41.28362","'-72.9569797","User provided",""
"CHECKER`S FOOD STORES","99 N Colony Rd","WALLINGFORD","6492","CT","USA","","","http://www.ctlottery.org/Modules/Directory/06492","","41.4568388","'-72.8239886","User provided",""
"SAM`S FOOD STORE","534 E Middle Tpke","MANCHESTER","6040","CT","USA","","","http://www.ctlottery.org/Modules/Directory/06040","","41.7845889","'-72.498255","User provided",""
"COUNTRY LIQUORS","140 WEST ST","BOLTON","6043","CT","USA","","","http://www.ctlottery.org/Modules/Directory/06043","","41.7502247","'-72.4385551","User provided",""
"Discount Tobacco & Novelty","130 E Main St","NEW BRITAIN","6051","CT","USA","","","http://www.ctlottery.org/Modules/Directory/06051","","41.6704333","'-72.7807339","User provided",""
"TOMATOE`S PIZZA & SPORTBAR","44 SOUTH MAIN ST","EAST WINDSOR","6088","CT","USA","","","http://www.ctlottery.org/Modules/Directory/06088","","41.9062806","'-72.614362","User provided",""
"STOP & SHOP #684","505 N MAIN ST","SOUTHINGTON","6489","CT","USA","","","http://www.ctlottery.org/Modules/Directory/06489","","41.6139391","'-72.8729265","User provided",""
"Royal Spirits","1186 Stanley Street","NEW BRITAIN","6051","CT","USA","","","http://www.ctlottery.org/Modules/Directory/06051","","41.679327","'-72.769046","User provided",""
"Norwich Conv & Smoke Shop LLC","500 Norwich Ave","TAFTVILLE","6380","CT","USA","","","http://www.ctlottery.org/Modules/Directory/06380","","41.5669667","'-72.0471605","User provided",""
"PINERIDGE SHELL","1036 E MAIN ST","TORRINGTON","6790","CT","USA","","","http://www.ctlottery.org/Modules/Directory/06790","","41.813327","'-73.098428","User provided",""
"SAM`S DELI","153 Highland Ave","WATERBURY","6708","CT","USA","","","http://www.ctlottery.org/Modules/Directory/06708","","41.5528203","'-73.0586326","User provided",""
"Mohegan Sun EagleView","1 Mohegan Sun Boulevard","UNCASVILLE","6382","CT","USA","","","http://www.ctlottery.org/Modules/Directory/06382","","41.4913916","'-72.0905405","User provided",""
"OLIVERS","75 WATERBURY RD","PROSPECT","6712","CT","USA","","","http://www.ctlottery.org/Modules/Directory/06712","","41.5143997","'-72.9857156","User provided",""
"Stratford Avenue Ventures LLC","1240 Stratford Avenue","STRATFORD","6615","CT","USA","","","http://www.ctlottery.org/Modules/Directory/06615","","41.1870533","'-73.1344784","User provided",""
"TOWN & COUNTRY MARKET","153 Glenwood Rd","CLINTON","6413","CT","USA","","","http://www.ctlottery.org/Modules/Directory/06413","","41.3060604","'-72.5261217","User provided",""
"J&L PKG","862 Park St","HARTFORD","6106","CT","USA","","","http://www.ctlottery.org/Modules/Directory/06106","","41.7581581","'-72.6913983","User provided",""
"Newington Food Land","60 Walsh Avenue","NEWINGTON","6111","CT","USA","","","http://www.ctlottery.org/Modules/Directory/06111","","41.6953691","'-72.7240553","User provided",""
"Thomaston Xtra Mart","196 Pine Hill Rd","THOMASTON","6787","CT","USA","","","http://www.ctlottery.org/Modules/Directory/06787","","41.6573612","'-73.087223","User provided",""
"THE BOTTLE CRIB","1065 MIDDLETOWN AVE","NORTHFORD","6472","CT","USA","","","http://www.ctlottery.org/Modules/Directory/06472","","41.3803485","'-72.8129152","User provided",""
"Nunes Convenience Store","478 Iranistan Ave","BRIDGEPORT","6604","CT","USA","","","http://www.ctlottery.org/Modules/Directory/06604","","41.1675779","'-73.1995425","User provided",""
"Annas Place","352 Coram Avenue","SHELTON","6484","CT","USA","","","http://www.ctlottery.org/Modules/Directory/06484","","41.3165623","'-73.0943418","User provided",""
"Tonys Operating Company LLC","1016 Killingworth Rd","HIGGANUM","6441","CT","USA","","","http://www.ctlottery.org/Modules/Directory/06441","","41.428782","'-72.5601","User provided",""
"BIG Y WORLD CLASS MKT #35","535 MONROE TPKE","MONROE","6468","CT","USA","","","http://www.ctlottery.org/Modules/Directory/06468","","41.3190597","'-73.2141585","User provided",""
"Cibao Deli & Grocery","39 Harbor Avenue","NORWALK","6850","CT","USA","","","http://www.ctlottery.org/Modules/Directory/06850","","41.11169","'-73.412276","User provided",""
"Steve`s Price Cutters Liquor","156 Silas Deane Hwy","WETHERSFIELD","6109","CT","USA","","","http://www.ctlottery.org/Modules/Directory/06109","","41.7229467","'-72.6680517","User provided",""
"Middletown Deli Grocery LLC","28 Broad St","MIDDLETOWN","6457","CT","USA","","","http://www.ctlottery.org/Modules/Directory/06457","","41.5573558","'-72.6502078","User provided",""
"RITE AID #10355","27 Main St","LISBON","6351","CT","USA","","","http://www.ctlottery.org/Modules/Directory/06351","","41.5974631","'-72.0475774","User provided",""
"FOOD BAG #511","960 MERIDEN-WATERBURY TPKE","SOUTHINGTON","6489","CT","USA","","","http://www.ctlottery.org/Modules/Directory/06489","","41.562918","'-72.877061","User provided",""
"Price Chopper #243","1220 Storrs Road","STORRS","6268","CT","USA","","","http://www.ctlottery.org/Modules/Directory/06268","","41.8050182","'-72.2442393","User provided",""
"NEW TURBO NEWS PLUS LLC","1140 MAIN ST","STRATFORD","6615","CT","USA","","","http://www.ctlottery.org/Modules/Directory/06615","","41.1739743","'-73.1290754","User provided",""
"CUMBERLAND FARMS #4710","723 WOLCOTT RD","WOLCOTT","6716","CT","USA","","","http://www.ctlottery.org/Modules/Directory/06716","","41.6017013","'-72.9865051","User provided",""
"Express Pawn LLC","961 1st Ave","WEST HAVEN","6516","CT","USA","","","http://www.ctlottery.org/Modules/Directory/06516","","41.288581","'-72.957271","User provided",""
"HENNY PENNY #29","2 New London Rd JCT RTE 82&85","SALEM","6420","CT","USA","","","http://www.ctlottery.org/Modules/Directory/06420","","41.4903761","'-72.275359","User provided",""
"BIG Y WORLD CLASS MKT#34","141-B STORRS RD","MANSFIELD","6250","CT","USA","","","http://www.ctlottery.org/Modules/Directory/06250","","41.7401402","'-72.1975084","User provided",""
"Sunnys food & fuel","2414 Goldstar Hwy","MYSTIC","6355","CT","USA","","","http://www.ctlottery.org/Modules/Directory/06355","","41.3900513","'-71.9876427","User provided",""
"Dixwell Mini Mart","284 Dixwell Ave","NEW HAVEN","6511","CT","USA","","","http://www.ctlottery.org/Modules/Directory/06511","","41.3209998","'-72.9344377","User provided",""
"Guilford Xtra Mart","1675 Boston Post Road","GUILFORD","6437","CT","USA","","","http://www.ctlottery.org/Modules/Directory/06437","","41.296032","'-72.7023892","User provided",""
"WOODWARD LIQUOR LLC","50 Woodward Ave","NORWALK","6854","CT","USA","","","http://www.ctlottery.org/Modules/Directory/06854","","41.09161","'-73.416744","User provided",""
"FOOD MART","2088 HEBRON AVE","GLASTONBURY","6033","CT","USA","","","http://www.ctlottery.org/Modules/Directory/06033","","41.712426","'-72.528105","User provided",""
"GRAND SPIRIT II","220 Rte 12","GROTON","6340","CT","USA","","","http://www.ctlottery.org/Modules/Directory/06340","","41.3680645","'-72.0699038","User provided",""
"ABSOLUTE LIQUORS","5 FOXON RD","NORTH BRANFORD","6471","CT","USA","","","http://www.ctlottery.org/Modules/Directory/06471","","41.325729","'-72.8219632","User provided",""
"JB Wine & Spirits","29 Newtown Rd","DANBURY","6810","CT","USA","","","http://www.ctlottery.org/Modules/Directory/06810","","41.401806","'-73.424534","User provided",""
"DAIRY PLUS","269 N WASHINGTON ST","PLAINVILLE","6062","CT","USA","","","http://www.ctlottery.org/Modules/Directory/06062","","41.6786171","'-72.8773749","User provided",""
"BANK STREET MARKET","377 Bank St","NEW LONDON","6320","CT","USA","","","http://www.ctlottery.org/Modules/Directory/06320","","41.3507724","'-72.0989358","User provided",""
"BROAD STREET SHELL","38 W Broad St","STAMFORD","6902","CT","USA","","","http://www.ctlottery.org/Modules/Directory/06902","","41.0555814","'-73.5457881","User provided",""
"R A Hafeez Corporation","131 Meriden Road","WATERBURY","6705","CT","USA","","","http://www.ctlottery.org/Modules/Directory/06705","","41.549487","'-73.014597","User provided",""
"CLC CASHING TERMINAL","777 Brook Street","Rocky Hill","6067","CT","USA","","","http://www.ctlottery.org/Modules/Directory/06067","","41.6421132","'-72.672423","User provided",""
"401 PUTNAM INC.","401 WEST PUTNAM AVE","GREENWICH","6830","CT","USA","","","http://www.ctlottery.org/Modules/Directory/06830","","41.021931","'-73.640367","User provided",""
"WIRTH LIQUOR INC.","1034 RESERVOIR AVE","BRIDGEPORT","6606","CT","USA","","","http://www.ctlottery.org/Modules/Directory/06606","","41.2146282","'-73.1919315","User provided",""
"Luceritos Family Grocery","100 Lockwood Ave","STAMFORD","6902","CT","USA","","","http://www.ctlottery.org/Modules/Directory/06902","","41.0525693","'-73.5214388","User provided",""
"Tienda Latina LLC","129 Danbury Rd Unit 8","NEW MILFORD","6776","CT","USA","","","http://www.ctlottery.org/Modules/Directory/06776","","41.5557267","'-73.4171143","User provided",""
"Dairy Plus","72 West St","CROMWELL","6416","CT","USA","","","http://www.ctlottery.org/Modules/Directory/06416","","41.5997589","'-72.6545941","User provided",""
"North Branford Xpressmart","1975 Foxon Blvd","NORTH BRANFORD","6471","CT","USA","","","http://www.ctlottery.org/Modules/Directory/06471","","41.3332691","'-72.7587201","User provided",""
"Hope Street Mini Mart","1085 Hope Street","STAMFORD","6907","CT","USA","","","http://www.ctlottery.org/Modules/Directory/06907","","41.0955866","'-73.5193333","User provided",""
"WEST FARM`S MINIMART INC","625 HARTFORD RD","NEW BRITAIN","6053","CT","USA","","","http://www.ctlottery.org/Modules/Directory/06053","","41.715291","'-72.76321","User provided",""
"Vinny`s Market LLC","1133 Stratford Ave","BRIDGEPORT","6607","CT","USA","","","http://www.ctlottery.org/Modules/Directory/06607","","41.1777379","'-73.1677756","User provided",""
"Enfield Pizza PalaceJimmys Pub","524 Enfield St","ENFIELD","6082","CT","USA","","","http://www.ctlottery.org/Modules/Directory/06082","","42.0100885","'-72.5939627","User provided",""
"RITE AID #10353","200 Westminister Rd","CANTERBURY","6331","CT","USA","","","http://www.ctlottery.org/Modules/Directory/06331","","41.6449722","'-72.0304952","User provided",""
"Cayey Market","155 Kimberly Ave","NEW HAVEN","6519","CT","USA","","","http://www.ctlottery.org/Modules/Directory/06519","","41.2882405","'-72.9350305","User provided",""
"Tobacco World","1156 Main st","WATERTOWN","6795","CT","USA","","","http://www.ctlottery.org/Modules/Directory/06795","","41.5930239","'-73.1098974","User provided",""
"STOP & SHOP #642","747 Pine St","BRISTOL","6010","CT","USA","","","http://www.ctlottery.org/Modules/Directory/06010","","41.6688666","'-72.8952609","User provided",""
"HENNY PENNY #42","77 N Turnpike Rd","WALLINGFORD","6492","CT","USA","","","http://www.ctlottery.org/Modules/Directory/06492","","41.4735609","'-72.831361","User provided",""
"ONE STOP VARIETY","247 CONNECTICUT AVE","NORWALK","6854","CT","USA","","","http://www.ctlottery.org/Modules/Directory/06854","","41.1030009","'-73.4340346","User provided",""
"McKinnons Irish Pub","114 Asylum Street","HARTFORD","6103","CT","USA","","","http://www.ctlottery.org/Modules/Directory/06103","","41.7672121","'-72.6752133","User provided",""
"JDs Pizzeria Bar & Grill","713 Queen Street","SOUTHINGTON","6489","CT","USA","","","http://www.ctlottery.org/Modules/Directory/06489","","41.6361024","'-72.8732545","User provided",""
"B&K Grocery","597 Winchester Ave","NEW HAVEN","6511","CT","USA","","","http://www.ctlottery.org/Modules/Directory/06511","","41.327987","'-72.926434","User provided",""
"RS Petroleum","429 Shelton Ave","SHELTON","6484","CT","USA","","","http://www.ctlottery.org/Modules/Directory/06484","","41.301693","'-73.135774","User provided",""
"Airport Mobil","107 Ella Grasso Tpke","WINDSOR LOCKS","6096","CT","USA","","","http://www.ctlottery.org/Modules/Directory/06096","","41.9213766","'-72.6703929","User provided",""
"Bank Street Mini Market","868 Bank St","WATERBURY","6708","CT","USA","","","http://www.ctlottery.org/Modules/Directory/06708","","41.5449611","'-73.045564","User provided",""
"Smokers Zone","443 East St Store B","PLAINVILLE","6062","CT","USA","","","http://www.ctlottery.org/Modules/Directory/06062","","41.6747222","'-72.8569444","User provided",""
"Crabby Als","157 East Main Street","THOMASTON","6787","CT","USA","","","http://www.ctlottery.org/Modules/Directory/06787","","41.6740789","'-73.0702638","User provided",""
"RITE AID #10363","25 E High St","EAST HAMPTON","6424","CT","USA","","","http://www.ctlottery.org/Modules/Directory/06424","","41.5839545","'-72.5028834","User provided",""
"SUPER STOP & SHOP #621","100 Main St N","SOUTHBURY","6488","CT","USA","","","http://www.ctlottery.org/Modules/Directory/06488","","41.4792319","'-73.2132322","User provided",""
"Elm Hill Sprit Shope","548 New Britain Ave","NEWINGTON","6111","CT","USA","","","http://www.ctlottery.org/Modules/Directory/06111","","41.6732657","'-72.745758","User provided",""
"Henny Penny Monroe","241 Roosevelt Drive","MONROE","6468","CT","USA","","","http://www.ctlottery.org/Modules/Directory/06468","","41.3877862","'-73.1867537","User provided",""
"On The Go Country Store","128 New Hartford Rd","BARKHAMSTED","6063","CT","USA","","","http://www.ctlottery.org/Modules/Directory/06063","","41.9051611","'-72.9979001","User provided",""
"Price Chopper #232","855 Washington St","MIDDLETOWN","6457","CT","USA","","","http://www.ctlottery.org/Modules/Directory/06457","","41.5542896","'-72.6815346","User provided",""
"Moon Mart","229 Whitewood St","WATERBURY","6708","CT","USA","","","http://www.ctlottery.org/Modules/Directory/06708","","41.5786338","'-73.0813644","User provided",""
"BIG Y #33","83 LATHROP RD","PLAINFIELD","6374","CT","USA","","","http://www.ctlottery.org/Modules/Directory/06374","","41.6622116","'-71.9118996","User provided",""
"COVENTRY FOOD MART","8 Daley Rd","COVENTRY","6238","CT","USA","","","http://www.ctlottery.org/Modules/Directory/06238","","41.7844849","'-72.334395","User provided",""
"Daddys Market","727 East Main St","BRIDGEPORT","6608","CT","USA","","","http://www.ctlottery.org/Modules/Directory/06608","","41.1846046","'-73.1810777","User provided",""
"Aarav Foodmart","1570 Whalley Ave","NEW HAVEN","6515","CT","USA","","","http://www.ctlottery.org/Modules/Directory/06515","","41.33772","'-72.97705","User provided",""
"Mill Plain Exxon","111 Mill Plain Rd","DANBURY","6811","CT","USA","","","http://www.ctlottery.org/Modules/Directory/06811","","41.392496","'-73.520661","User provided",""
"MEADOWBROOK WINE & SPIRIT","1687 Boston Tpke","COVENTRY","6238","CT","USA","","","http://www.ctlottery.org/Modules/Directory/06238","","41.798254","'-72.3724066","User provided",""
"RITE AID #10385","1-A Padanarum Rd","DANBURY","6810","CT","USA","","","http://www.ctlottery.org/Modules/Directory/06810","","41.414146","'-73.456647","User provided",""
"CUMBERLAND FARMS #4690","1588 WATERTOWN AVE","WATERBURY","6708","CT","USA","","","http://www.ctlottery.org/Modules/Directory/06708","","41.584183","'-73.074618","User provided",""
"PRICE CHOPPER #189","251 Kennedy Dr Suite A","PUTNAM","6260","CT","USA","","","http://www.ctlottery.org/Modules/Directory/06260","","41.9185541","'-71.9091991","User provided",""
"Hi Way Package Store","18 Killingworth Rd","HIGGANUM","6441","CT","USA","","","http://www.ctlottery.org/Modules/Directory/06441","","41.495569","'-72.557777","User provided",""
"Wallingford Food Land","250 S Colony Rd","WALLINGFORD","6492","CT","USA","","","http://www.ctlottery.org/Modules/Directory/06492","","41.451868","'-72.826509","User provided",""
"AA Grocery LLC","69 Greenwich Ave","STAMFORD","6902","CT","USA","","","http://www.ctlottery.org/Modules/Directory/06902","","41.0484072","'-73.5464431","User provided",""
"RB Market","1001 N Colony Rd","WALLINGFORD","6492","CT","USA","","","http://www.ctlottery.org/Modules/Directory/06492","","41.4904139","'-72.8098201","User provided",""
"BJ`S WHOLESALE CLUB #214","106 Federal Rd","BROOKFIELD","6804","CT","USA","","","http://www.ctlottery.org/Modules/Directory/06804","","41.435308","'-73.41115","User provided",""
"TIENDA ECUADOR LLC","72 Lake Ave","DANBURY","6810","CT","USA","","","http://www.ctlottery.org/Modules/Directory/06810","","41.3886467","'-73.4698568","User provided",""
"Stop & Go","526 Main St","EAST HAVEN","6512","CT","USA","","","http://www.ctlottery.org/Modules/Directory/06512","","41.2832331","'-72.8812679","User provided",""
"Kwik Food Stop","208 Willow St","WATERBURY","6701","CT","USA","","","http://www.ctlottery.org/Modules/Directory/06701","","41.5634351","'-73.0481721","User provided",""
"Allegras Cafe","249 251 W Main St","BRANFORD","6405","CT","USA","","","http://www.ctlottery.org/Modules/Directory/06405","","41.2776285","'-72.8538394","User provided",""
"HENNY PENNY #21","168 W MAIN ST","NIANTIC","6357","CT","USA","","","http://www.ctlottery.org/Modules/Directory/06357","","41.31801","'-72.227133","User provided",""
"STEP UP PACKAGE STORE","200 Oak St","NEW BRITAIN","6051","CT","USA","","","http://www.ctlottery.org/Modules/Directory/06051","","41.679826","'-72.7757638","User provided",""
"Adams Home Town Market","92 Main St","THOMASTON","6787","CT","USA","","","http://www.ctlottery.org/Modules/Directory/06787","","41.674238","'-73.0739679","User provided",""
"WHITESTONE MINI MART INC","144 ARCH ST","HAMDEN","6514","CT","USA","","","http://www.ctlottery.org/Modules/Directory/06514","","41.338065","'-72.940821","User provided",""
"East Avenue Citgo Inc","211 East Ave","NORWALK","6855","CT","USA","","","http://www.ctlottery.org/Modules/Directory/06855","","41.104799","'-73.404393","User provided",""
"Liquor Outlet","2790 Main St.","HARTFORD","6120","CT","USA","","","http://www.ctlottery.org/Modules/Directory/06120","","41.7913927","'-72.6691027","User provided",""
"SAM`S FOOD STORE","625 MAIN ST","SOMERS","6071","CT","USA","","","http://www.ctlottery.org/Modules/Directory/06071","","41.985727","'-72.4434881","User provided",""
"RITE AID #10375","2175 Dixwell Ave","HAMDEN","6514","CT","USA","","","http://www.ctlottery.org/Modules/Directory/06514","","41.369755","'-72.917832","User provided",""
"WASH WORKS","953 E Main St","STAMFORD","6902","CT","USA","","","http://www.ctlottery.org/Modules/Directory/06902","","41.0557172","'-73.5215756","User provided",""
"Best Cellars #243","282 Elm Street","NEW CANAAN","6840","CT","USA","","","http://www.ctlottery.org/Modules/Directory/06840","","41.1447876","'-73.5002341","User provided",""
"NAINA MART","81 Union St","VERNON","6066","CT","USA","","","http://www.ctlottery.org/Modules/Directory/06066","","41.8672869","'-72.4537827","User provided",""
"Sams Food Store","850 Wolcott St","WATERBURY","6705","CT","USA","","","http://www.ctlottery.org/Modules/Directory/06705","","41.564533","'-73.008554","User provided",""
"STRATFORD FOOD CENTER","11 Woodend Rd","STRATFORD","6615","CT","USA","","","http://www.ctlottery.org/Modules/Directory/06615","","41.1791772","'-73.1306838","User provided",""
"Maple Avenue Discount Liquor","871 Maple Ave","HARTFORD","6114","CT","USA","","","http://www.ctlottery.org/Modules/Directory/06114","","41.7356458","'-72.6865835","User provided",""
"CITGO EXPRESS","206 Merrow Rd","TOLLAND","6084","CT","USA","","","http://www.ctlottery.org/Modules/Directory/06084","","41.8599406","'-72.3527018","User provided",""
"BJ`S WHOLESALE CLUB #78","507 NEW PARK AVE","ELMWOOD","6110","CT","USA","","","http://www.ctlottery.org/Modules/Directory/06110","","41.7396556","'-72.7191294","User provided",""
"Smokey O`Gradys","306 Flanders Road","EAST LYME","6333","CT","USA","","","http://www.ctlottery.org/Modules/Directory/06333","","41.3635686","'-72.2095603","User provided",""
"BUNKER HILL PHARMACY","256 BUNKER HILL AVE","WATERBURY","6708","CT","USA","","","http://www.ctlottery.org/Modules/Directory/06708","","41.5695709","'-73.0644121","User provided",""
"Kiran Mart LLC","1450 Southford Rd","SOUTHBURY","6488","CT","USA","","","http://www.ctlottery.org/Modules/Directory/06488","","41.4646233","'-73.1621775","User provided",""
"Macaudas Package Store","1370 East Main Street","BRIDGEPORT","6608","CT","USA","","","http://www.ctlottery.org/Modules/Directory/06608","","41.1934284","'-73.1804573","User provided",""
"Shore Discount Liquor","94 W Main Street","CLINTON","6413","CT","USA","","","http://www.ctlottery.org/Modules/Directory/06413","","41.2782278","'-72.5368333","User provided",""
"TOM D & S LLC","346 Baldwin St","WATERBURY","6706","CT","USA","","","http://www.ctlottery.org/Modules/Directory/06706","","41.547837","'-73.0335757","User provided",""
"Cumberland Farms #4762","465 New Park Ave","WEST HARTFORD","6110","CT","USA","","","http://www.ctlottery.org/Modules/Directory/06110","","41.742091","'-72.717521","User provided",""
"GETTY MART OF WATERBURY","993 HAMILTON AVE","WATERBURY","6706","CT","USA","","","http://www.ctlottery.org/Modules/Directory/06706","","41.537239","'-73.017554","User provided",""
"BOSTON SHELL LLC","1917 BOSTON AVE","BRIDGEPORT","6610","CT","USA","","","http://www.ctlottery.org/Modules/Directory/06610","","41.1933464","'-73.1587328","User provided",""
"Trackside Deli LLC","108 Main St","ROCKFALL","6481","CT","USA","","","http://www.ctlottery.org/Modules/Directory/06481","","41.530691","'-72.6907342","User provided",""
"CORBIN FOOD MART LLC","1144 Corbin Ave","NEW BRITAIN","6053","CT","USA","","","http://www.ctlottery.org/Modules/Directory/06053","","41.666157","'-72.80701","User provided",""
"Winners New Britain","158 E MAIN ST","NEW BRITAIN","6051","CT","USA","","","http://www.ctlottery.org/Modules/Directory/06051","","41.6704359","'-72.7807111","User provided",""
"THE CORNER STORE","500 SILAS DEANE HWY","WETHERSFIELD","6109","CT","USA","","","http://www.ctlottery.org/Modules/Directory/06109","","41.7121136","'-72.6634816","User provided",""
"BRIDGEPORT NEWS INC","584 NORTH AVE","BRIDGEPORT","6606","CT","USA","","","http://www.ctlottery.org/Modules/Directory/06606","","41.196081","'-73.1938161","User provided",""
"New Park Package","2 New Park Ave Unit A","HARTFORD","6106","CT","USA","","","http://www.ctlottery.org/Modules/Directory/06106","","41.7553806","'-72.7017385","User provided",""
"3 Hermanos Grocery","695 Pacific Street","STAMFORD","6902","CT","USA","","","http://www.ctlottery.org/Modules/Directory/06902","","41.0435875","'-73.5379875","User provided",""
"RAINBOW NEWS & VARIETY LLC","205 Main St","NORWALK","6851","CT","USA","","","http://www.ctlottery.org/Modules/Directory/06851","","41.1280542","'-73.4229899","User provided",""
"YE OLD LIQUOR SHOPPE LLC","174 MAIN ST","WEST HAVEN","6516","CT","USA","","","http://www.ctlottery.org/Modules/Directory/06516","","41.2781844","'-72.8544496","User provided",""
"CENTER PACKAGE STORE","93 MAIN ST","EAST HAMPTON","6424","CT","USA","","","http://www.ctlottery.org/Modules/Directory/06424","","41.5745124","'-72.5020323","User provided",""
"Pit Stop Cafe","338 Bridgeport Ave","MILFORD","6460","CT","USA","","","http://www.ctlottery.org/Modules/Directory/06460","","41.2041588","'-73.0974424","User provided",""
"No Haven Citgo","1915 Hartford Tpke","NORTH HAVEN","6473","CT","USA","","","http://www.ctlottery.org/Modules/Directory/06473","","41.4168958","'-72.8617505","User provided",""
"BIG Y WORLD CLASS MKT #31","RTE 12/ 70 WAUREGAN RD","DANIELSON","6239","CT","USA","","","http://www.ctlottery.org/Modules/Directory/06239","","41.79307","'-71.88399","User provided",""
"PETITS DISCOUNT LIQUORS","269 N WASHINGTON ST","PLAINVILLE","6062","CT","USA","","","http://www.ctlottery.org/Modules/Directory/06062","","41.6786171","'-72.8773749","User provided",""
"CUMBERLAND FARMS #4624","705 MIGEON AVE","TORRINGTON","6790","CT","USA","","","http://www.ctlottery.org/Modules/Directory/06790","","41.814298","'-73.1374683","User provided",""
"Mystic Valero LLC","530 New London Rd","MYSTIC","6355","CT","USA","","","http://www.ctlottery.org/Modules/Directory/06355","","41.3517916","'-71.9990855","User provided",""
"STOP & SAVE FOOD MART","583 ENFIELD ST","ENFIELD","6082","CT","USA","","","http://www.ctlottery.org/Modules/Directory/06082","","42.008181","'-72.5929797","User provided",""
"BEST GAS & FOOD MART","161 Boston Post Rd","WEST HAVEN","6516","CT","USA","","","http://www.ctlottery.org/Modules/Directory/06516","","41.2961664","'-72.9566736","User provided",""
"FIRST FUEL OF NORTH HAVEN","133 Middletown Ave","NORTH HAVEN","6473","CT","USA","","","http://www.ctlottery.org/Modules/Directory/06473","","41.341822","'-72.8614575","User provided",""
"FAS MART #309","1 Main St","ELLINGTON","6029","CT","USA","","","http://www.ctlottery.org/Modules/Directory/06029","","41.9005648","'-72.4594314","User provided",""
"News Express","200 Tunxis Hill Rd","FAIRFIELD","6825","CT","USA","","","http://www.ctlottery.org/Modules/Directory/06825","","41.1768874","'-73.2267276","User provided",""
"Dannys Liquor Store","2776 E Main St","WATERBURY","6705","CT","USA","","","http://www.ctlottery.org/Modules/Directory/06705","","41.542671","'-72.991969","User provided",""
"Danbury Gulf","1 Lake Ave Ext","DANBURY","6811","CT","USA","","","http://www.ctlottery.org/Modules/Directory/06811","","41.387956","'-73.4769323","User provided",""
"COUNTRY FARM","66 Main St","JEWETT CITY","6351","CT","USA","","","http://www.ctlottery.org/Modules/Directory/06351","","41.6058924","'-71.9823393","User provided",""
"Isran LLC","1219 Main Street","WATERTOWN","6795","CT","USA","","","http://www.ctlottery.org/Modules/Directory/06795","","41.5919855","'-73.1075954","User provided",""
"Wine World of Bethel","6 Stony Hill Rd","BETHEL","6801","CT","USA","","","http://www.ctlottery.org/Modules/Directory/06801","","41.417411","'-73.399893","User provided",""
"Oakville Post # 195","62 Bunker Hill Road","WATERTOWN","6795","CT","USA","","","http://www.ctlottery.org/Modules/Directory/06795","","41.5775167","'-73.1016855","User provided",""
"Simsbury Mobil","404 Hopmeadow St","WEATOGUE","6089","CT","USA","","","http://www.ctlottery.org/Modules/Directory/06089","","41.8526108","'-72.8128818","User provided",""
"7-Eleven Store #15438","535 Halfway House Rd","WINDSOR LOCKS","6096","CT","USA","","","http://www.ctlottery.org/Modules/Directory/06096","","41.9225091","'-72.6663362","User provided",""
"Squaw Hollow Xtra Mart","9 Nott Highway","ASHFORD","6278","CT","USA","","","http://www.ctlottery.org/Modules/Directory/06278","","41.8568061","'-72.1793616","User provided",""
"J & R WHITE STREET CITGO LLC","300 White St","DANBURY","6810","CT","USA","","","http://www.ctlottery.org/Modules/Directory/06810","","41.399087","'-73.431548","User provided",""
"Westbrook Xtra Mart","130 Boston Post Road","WESTBROOK","6498","CT","USA","","","http://www.ctlottery.org/Modules/Directory/06498","","41.27514","'-72.482695","User provided",""
"CHAPLIN PACKAGE STORE","169 WILLIMANTIC RD","CHAPLIN","6235","CT","USA","","","http://www.ctlottery.org/Modules/Directory/06235","","41.759908","'-72.142852","User provided",""
"WATERBURY XPRESS MART LLC","2406 N Main St","WATERBURY","6704","CT","USA","","","http://www.ctlottery.org/Modules/Directory/06704","","41.583247","'-73.028733","User provided",""
"RB Market","407 West Main Street","MERIDEN","6451","CT","USA","","","http://www.ctlottery.org/Modules/Directory/06451","","41.539992","'-72.816703","User provided",""
